examples/example_data/track-1241145440-1001120300074-0_1.tdm

CCSDS_TDM_VERS = 1.0
   COMMENT MASTER ID 1001120300074.0
   COMMENT TX_ECEF (2116582.848329356872,783500.738468278782,5945469.151553326286)
   COMMENT RX_ECEF (2170050.517928627320,897039.358002587338,5910280.246253359132)
   COMMENT This is a simulated track of MASTER ID 1001120300074.0 with EISCAT 3D
   COMMENT 233 MHz, time of flight, with ionospheric corrections
   COMMENT EISCAT 3D coordinates: 
   COMMENT Author(s): SORTS.
   CREATION_DATE       = 2019-04-11T20:29:23
META_START
   TIME_SYSTEM         = UTC
   START_TIME          = 2009-05-01T02:37:20.582423
   STOP_TIME           = 2009-05-01T02:49:14.588891
   PARTICIPANT_1       = Skibotn TX
   PARTICIPANT_2       = 1001120300074.0
   PARTICIPANT_3       = Karesuvanto
   MODE                = SEQUENTIAL
   PATH                = 1,2,3
   TRANSMIT_BAND       = 233000000.00000
   RECEIVE_BAND        = 233000000.00000
   TIMETAG_REF         = TRANSMIT
   INTEGRATION_REF     = START
   RANGE_MODE          = CONSTANT
   RANGE_MODULUS       = 2.56
   RANGE_UNITS         = KM
   DATA_QUALITY        = VALIDATED
   CORRECTION_RANGE    = 0.0
   NOISE_DATA          = ON
   CORRECTIONS_APPLIED = NO
META_STOP
DATA_START
   RANGE                   = 2009-05-01T02:37:20.582423 10555.573601504313 0.079056586893
   DOPPLER_INSTANTANEOUS   = 2009-05-01T02:37:20.582423 4.131990000212 0.134188787943
   RANGE                   = 2009-05-01T02:37:20.782425 10553.837338127170 0.079043867529
   DOPPLER_INSTANTANEOUS   = 2009-05-01T02:37:20.782425 4.131719770664 0.134172331679
   RANGE                   = 2009-05-01T02:37:20.982428 10552.273802019989 0.079031148899
   DOPPLER_INSTANTANEOUS   = 2009-05-01T02:37:20.982428 4.131445665129 0.134155883455
   RANGE                   = 2009-05-01T02:37:21.182431 10550.608512645120 0.079018431005
   DOPPLER_INSTANTANEOUS   = 2009-05-01T02:37:21.182431 4.131170439474 0.134139443269
   RANGE                   = 2009-05-01T02:37:21.382434 10548.926438073304 0.079005713849
   DOPPLER_INSTANTANEOUS   = 2009-05-01T02:37:21.382434 4.130900012260 0.134123011116
   RANGE                   = 2009-05-01T02:37:21.582437 10547.103453277225 0.078992997430
   DOPPLER_INSTANTANEOUS   = 2009-05-01T02:37:21.582437 4.130632943364 0.134106586995
   RANGE                   = 2009-05-01T02:37:21.782439 10545.598670675470 0.078980281749
   DOPPLER_INSTANTANEOUS   = 2009-05-01T02:37:21.782439 4.130371991744 0.134090170901
   RANGE                   = 2009-05-01T02:37:21.982442 10543.915548655908 0.078967566808
   DOPPLER_INSTANTANEOUS   = 2009-05-01T02:37:21.982442 4.130072294161 0.134073762832
   RANGE                   = 2009-05-01T02:37:22.182445 10542.185746870296 0.078954852607
   DOPPLER_INSTANTANEOUS   = 2009-05-01T02:37:22.182445 4.129805625192 0.134057362786
   RANGE                   = 2009-05-01T02:37:22.382448 10540.458020131269 0.078942139147
   DOPPLER_INSTANTANEOUS   = 2009-05-01T02:37:22.382448 4.137838545975 0.134040970758
   RANGE                   = 2009-05-01T02:37:22.582451 10538.873669112676 0.078929426429
   DOPPLER_INSTANTANEOUS   = 2009-05-01T02:37:22.582451 4.137533247823 0.134024586747
   RANGE                   = 2009-05-01T02:37:22.782454 10537.204148836710 0.078916714454
   DOPPLER_INSTANTANEOUS   = 2009-05-01T02:37:22.782454 4.137285672927 0.134008210748
   RANGE                   = 2009-05-01T02:37:22.982456 10535.415544838272 0.078904003223
   DOPPLER_INSTANTANEOUS   = 2009-05-01T02:37:22.982456 4.128719082417 0.133991842759
   RANGE                   = 2009-05-01T02:37:23.182459 10533.572061393461 0.078891292736
   DOPPLER_INSTANTANEOUS   = 2009-05-01T02:37:23.182459 4.128478825359 0.133975482777
   RANGE                   = 2009-05-01T02:37:23.382462 10532.174602233192 0.078878582994
   DOPPLER_INSTANTANEOUS   = 2009-05-01T02:37:23.382462 4.128171025464 0.133959130799
   RANGE                   = 2009-05-01T02:37:23.582465 10530.398734438002 0.078865873999
   DOPPLER_INSTANTANEOUS   = 2009-05-01T02:37:23.582465 4.127923870589 0.133942786822
   RANGE                   = 2009-05-01T02:37:23.782468 10528.727328164370 0.078853165751
   DOPPLER_INSTANTANEOUS   = 2009-05-01T02:37:23.782468 4.127635049947 0.133926450843
   RANGE                   = 2009-05-01T02:37:23.982471 10527.118704128443 0.078840458250
   DOPPLER_INSTANTANEOUS   = 2009-05-01T02:37:23.982471 4.127358894327 0.133910122859
   RANGE                   = 2009-05-01T02:37:24.182473 10525.298759480876 0.078827751498
   DOPPLER_INSTANTANEOUS   = 2009-05-01T02:37:24.182473 4.127075970200 0.133893802867
   RANGE                   = 2009-05-01T02:37:24.382476 10523.645530049831 0.078815045496
   DOPPLER_INSTANTANEOUS   = 2009-05-01T02:37:24.382476 4.126793957959 0.133877490864
   RANGE                   = 2009-05-01T02:37:24.582479 10522.022023396574 0.078802340244
   DOPPLER_INSTANTANEOUS   = 2009-05-01T02:37:24.582479 4.126517122061 0.133861186846
   RANGE                   = 2009-05-01T02:37:24.782482 10520.380219527215 0.078789635744
   DOPPLER_INSTANTANEOUS   = 2009-05-01T02:37:24.782482 4.126263359156 0.133844890812
   RANGE                   = 2009-05-01T02:37:24.982485 10518.898613053783 0.078776931996
   DOPPLER_INSTANTANEOUS   = 2009-05-01T02:37:24.982485 4.125979652585 0.133828602757
   RANGE                   = 2009-05-01T02:37:25.182487 10517.113178651305 0.078764229000
   DOPPLER_INSTANTANEOUS   = 2009-05-01T02:37:25.182487 4.125684698751 0.133812322680
   RANGE                   = 2009-05-01T02:37:25.382490 10515.553490559618 0.078751526759
   DOPPLER_INSTANTANEOUS   = 2009-05-01T02:37:25.382490 4.125436459862 0.133796050576
   RANGE                   = 2009-05-01T02:37:25.582493 10513.816217875217 0.078738825272
   DOPPLER_INSTANTANEOUS   = 2009-05-01T02:37:25.582493 4.125133974030 0.133779786444
   RANGE                   = 2009-05-01T02:37:25.782496 10512.098528826620 0.078726124541
   DOPPLER_INSTANTANEOUS   = 2009-05-01T02:37:25.782496 4.124885877712 0.133763530279
   RANGE                   = 2009-05-01T02:37:25.982499 10510.402993788750 0.078713424566
   DOPPLER_INSTANTANEOUS   = 2009-05-01T02:37:25.982499 4.124616734637 0.133747282080
   RANGE                   = 2009-05-01T02:37:26.182502 10508.759597868679 0.078700725349
   DOPPLER_INSTANTANEOUS   = 2009-05-01T02:37:26.182502 4.124320694864 0.133731041842
   RANGE                   = 2009-05-01T02:37:26.382504 10507.149117676632 0.078688024335
   DOPPLER_INSTANTANEOUS   = 2009-05-01T02:37:26.382504 4.124034379319 0.133714806299
   RANGE                   = 2009-05-01T02:37:26.582507 10505.346976896304 0.078675326635
   DOPPLER_INSTANTANEOUS   = 2009-05-01T02:37:26.582507 4.123793223959 0.133698581978
   RANGE                   = 2009-05-01T02:37:26.782510 10503.777664078036 0.078662629694
   DOPPLER_INSTANTANEOUS   = 2009-05-01T02:37:26.782510 4.123507697578 0.133682365611
   RANGE                   = 2009-05-01T02:37:26.982513 10502.192324197789 0.078649933515
   DOPPLER_INSTANTANEOUS   = 2009-05-01T02:37:26.982513 4.123214241750 0.133666157193
   RANGE                   = 2009-05-01T02:37:27.182516 10500.310223604083 0.078637238097
   DOPPLER_INSTANTANEOUS   = 2009-05-01T02:37:27.182516 4.122933798746 0.133649956723
   RANGE                   = 2009-05-01T02:37:27.382519 10498.799050526490 0.078624543441
   DOPPLER_INSTANTANEOUS   = 2009-05-01T02:37:27.382519 4.122652066920 0.133633764197
   RANGE                   = 2009-05-01T02:37:27.582521 10497.095690596854 0.078611849549
   DOPPLER_INSTANTANEOUS   = 2009-05-01T02:37:27.582521 4.122390566573 0.133617579612
   RANGE                   = 2009-05-01T02:37:27.782524 10495.390715369000 0.078599156421
   DOPPLER_INSTANTANEOUS   = 2009-05-01T02:37:27.782524 4.122045800130 0.133601402965
   RANGE                   = 2009-05-01T02:37:27.982527 10493.660594731078 0.078586464058
   DOPPLER_INSTANTANEOUS   = 2009-05-01T02:37:27.982527 4.121818293589 0.133585234254
   RANGE                   = 2009-05-01T02:37:28.182530 10492.120577209405 0.078573772460
   DOPPLER_INSTANTANEOUS   = 2009-05-01T02:37:28.182530 4.121540581492 0.133569073475
   RANGE                   = 2009-05-01T02:37:28.382533 10490.444461707175 0.078561081630
   DOPPLER_INSTANTANEOUS   = 2009-05-01T02:37:28.382533 4.121288676545 0.133552920625
   RANGE                   = 2009-05-01T02:37:28.582536 10488.618345477184 0.078548391567
   DOPPLER_INSTANTANEOUS   = 2009-05-01T02:37:28.582536 4.120991339219 0.133536775702
   RANGE                   = 2009-05-01T02:37:28.782538 10487.037119615608 0.078535702273
   DOPPLER_INSTANTANEOUS   = 2009-05-01T02:37:28.782538 4.120692059542 0.133520638702
   RANGE                   = 2009-05-01T02:37:28.982541 10485.407987478535 0.078523013748
   DOPPLER_INSTANTANEOUS   = 2009-05-01T02:37:28.982541 4.120405370136 0.133504509622
   RANGE                   = 2009-05-01T02:37:29.182544 10483.726942448426 0.078510325993
   DOPPLER_INSTANTANEOUS   = 2009-05-01T02:37:29.182544 4.120119558501 0.133488388460
   RANGE                   = 2009-05-01T02:37:29.382547 10482.067847386545 0.078497639009
   DOPPLER_INSTANTANEOUS   = 2009-05-01T02:37:29.382547 4.119847185910 0.133472275213
   RANGE                   = 2009-05-01T02:37:29.582550 10480.113459794537 0.078484952797
   DOPPLER_INSTANTANEOUS   = 2009-05-01T02:37:29.582550 4.119579743171 0.133456169877
   RANGE                   = 2009-05-01T02:37:29.782552 10478.670915544497 0.078472267358
   DOPPLER_INSTANTANEOUS   = 2009-05-01T02:37:29.782552 4.127569588615 0.133440072450
   RANGE                   = 2009-05-01T02:37:29.982555 10476.941192690652 0.078459582693
   DOPPLER_INSTANTANEOUS   = 2009-05-01T02:37:29.982555 4.127275885578 0.133423982929
   RANGE                   = 2009-05-01T02:37:30.182558 10475.265109242644 0.078446898802
   DOPPLER_INSTANTANEOUS   = 2009-05-01T02:37:30.182558 4.127000457150 0.133407901311
   RANGE                   = 2009-05-01T02:37:30.382561 10473.678549674780 0.078434215687
   DOPPLER_INSTANTANEOUS   = 2009-05-01T02:37:30.382561 4.118412987974 0.133391827592
   RANGE                   = 2009-05-01T02:37:30.582564 10472.062039595503 0.078421533348
   DOPPLER_INSTANTANEOUS   = 2009-05-01T02:37:30.582564 4.118145336489 0.133375761770
   RANGE                   = 2009-05-01T02:37:30.782567 10470.369405835343 0.078408851786
   DOPPLER_INSTANTANEOUS   = 2009-05-01T02:37:30.782567 4.117842252316 0.133359703842
   RANGE                   = 2009-05-01T02:37:30.982569 10468.675528595384 0.078396171002
   DOPPLER_INSTANTANEOUS   = 2009-05-01T02:37:30.982569 4.117616848304 0.133343653806
   RANGE                   = 2009-05-01T02:37:31.182572 10466.925979854270 0.078383490997
   DOPPLER_INSTANTANEOUS   = 2009-05-01T02:37:31.182572 4.117318366194 0.133327611657
   RANGE                   = 2009-05-01T02:37:31.382575 10465.373094967697 0.078370811772
   DOPPLER_INSTANTANEOUS   = 2009-05-01T02:37:31.382575 4.117049702202 0.133311577393
   RANGE                   = 2009-05-01T02:37:31.582578 10463.708582502546 0.078358133327
   DOPPLER_INSTANTANEOUS   = 2009-05-01T02:37:31.582578 4.116756278797 0.133295551012
   RANGE                   = 2009-05-01T02:37:31.782581 10462.094963155881 0.078345455664
   DOPPLER_INSTANTANEOUS   = 2009-05-01T02:37:31.782581 4.116463231172 0.133279532510
   RANGE                   = 2009-05-01T02:37:31.982584 10460.451854001178 0.078332778784
   DOPPLER_INSTANTANEOUS   = 2009-05-01T02:37:31.982584 4.116143963993 0.133263521884
   RANGE                   = 2009-05-01T02:37:32.182586 10458.611784322293 0.078320102687
   DOPPLER_INSTANTANEOUS   = 2009-05-01T02:37:32.182586 4.115896754498 0.133247519132
   RANGE                   = 2009-05-01T02:37:32.382589 10456.997858666464 0.078307427373
   DOPPLER_INSTANTANEOUS   = 2009-05-01T02:37:32.382589 4.115602466696 0.133231524250
   RANGE                   = 2009-05-01T02:37:32.582592 10455.435536442397 0.078294752845
   DOPPLER_INSTANTANEOUS   = 2009-05-01T02:37:32.582592 4.115319714900 0.133215537235
   RANGE                   = 2009-05-01T02:37:32.782595 10453.547923982562 0.078282079103
   DOPPLER_INSTANTANEOUS   = 2009-05-01T02:37:32.782595 4.114992282650 0.133199558086
   RANGE                   = 2009-05-01T02:37:32.982598 10452.000093356774 0.078269406148
   DOPPLER_INSTANTANEOUS   = 2009-05-01T02:37:32.982598 4.114686328372 0.133183586798
   RANGE                   = 2009-05-01T02:37:33.182600 10450.318154490387 0.078256733980
   DOPPLER_INSTANTANEOUS   = 2009-05-01T02:37:33.182600 4.114452900266 0.133167623368
   RANGE                   = 2009-05-01T02:37:33.382603 10448.711839304089 0.078244062600
   DOPPLER_INSTANTANEOUS   = 2009-05-01T02:37:33.382603 4.114189461316 0.133151667795
   RANGE                   = 2009-05-01T02:37:33.582606 10446.882908777770 0.078231392011
   DOPPLER_INSTANTANEOUS   = 2009-05-01T02:37:33.582606 4.113856076728 0.133135720074
   RANGE                   = 2009-05-01T02:37:33.782609 10445.529466125077 0.078218719662
   DOPPLER_INSTANTANEOUS   = 2009-05-01T02:37:33.782609 4.113595427979 0.133119776998
   RANGE                   = 2009-05-01T02:37:33.982612 10443.678812121707 0.078206050654
   DOPPLER_INSTANTANEOUS   = 2009-05-01T02:37:33.982612 4.113290390645 0.133103844976
   RANGE                   = 2009-05-01T02:37:34.182614 10441.788581046014 0.078193382438
   DOPPLER_INSTANTANEOUS   = 2009-05-01T02:37:34.182614 4.113020001458 0.133087920799
   RANGE                   = 2009-05-01T02:37:34.382617 10440.339817243044 0.078180715015
   DOPPLER_INSTANTANEOUS   = 2009-05-01T02:37:34.382617 4.112683533467 0.133072004463
   RANGE                   = 2009-05-01T02:37:34.582620 10438.731451745487 0.078168048385
   DOPPLER_INSTANTANEOUS   = 2009-05-01T02:37:34.582620 4.112415093711 0.133056095965
   RANGE                   = 2009-05-01T02:37:34.782623 10436.980080273188 0.078155382551
   DOPPLER_INSTANTANEOUS   = 2009-05-01T02:37:34.782623 4.112145835679 0.133040195302
   RANGE                   = 2009-05-01T02:37:34.982626 10435.332350889230 0.078142717512
   DOPPLER_INSTANTANEOUS   = 2009-05-01T02:37:34.982626 4.111838724993 0.133024302473
   RANGE                   = 2009-05-01T02:37:35.182628 10433.685871498228 0.078130053269
   DOPPLER_INSTANTANEOUS   = 2009-05-01T02:37:35.182628 4.111536449318 0.133008417472
   RANGE                   = 2009-05-01T02:37:35.382631 10431.972201143335 0.078117389824
   DOPPLER_INSTANTANEOUS   = 2009-05-01T02:37:35.382631 4.111251030056 0.132992540299
   RANGE                   = 2009-05-01T02:37:35.582634 10430.425784905950 0.078104727177
   DOPPLER_INSTANTANEOUS   = 2009-05-01T02:37:35.582634 4.110952037723 0.132976670949
   RANGE                   = 2009-05-01T02:37:35.782637 10428.766798227478 0.078092065329
   DOPPLER_INSTANTANEOUS   = 2009-05-01T02:37:35.782637 4.110663561328 0.132960809421
   RANGE                   = 2009-05-01T02:37:35.982640 10426.936696530165 0.078079404281
   DOPPLER_INSTANTANEOUS   = 2009-05-01T02:37:35.982640 4.110374724359 0.132944955710
   RANGE                   = 2009-05-01T02:37:36.182642 10425.407460693790 0.078066744034
   DOPPLER_INSTANTANEOUS   = 2009-05-01T02:37:36.182642 4.110068633261 0.132929109815
   RANGE                   = 2009-05-01T02:37:36.382645 10423.603506631569 0.078054084589
   DOPPLER_INSTANTANEOUS   = 2009-05-01T02:37:36.382645 4.109816121798 0.132913271732
   RANGE                   = 2009-05-01T02:37:36.582648 10422.060379404109 0.078041425946
   DOPPLER_INSTANTANEOUS   = 2009-05-01T02:37:36.582648 4.109505970889 0.132897441458
   RANGE                   = 2009-05-01T02:37:36.782651 10420.442023592806 0.078028768107
   DOPPLER_INSTANTANEOUS   = 2009-05-01T02:37:36.782651 4.109221629462 0.132881618991
   RANGE                   = 2009-05-01T02:37:36.982654 10418.733169816425 0.078016111073
   DOPPLER_INSTANTANEOUS   = 2009-05-01T02:37:36.982654 4.108931824763 0.132865804327
   RANGE                   = 2009-05-01T02:37:37.182657 10417.112488299263 0.078003454843
   DOPPLER_INSTANTANEOUS   = 2009-05-01T02:37:37.182657 4.116906232442 0.132849997464
   RANGE                   = 2009-05-01T02:37:37.382659 10415.328173705677 0.077990799420
   DOPPLER_INSTANTANEOUS   = 2009-05-01T02:37:37.382659 4.116590666460 0.132834198399
   RANGE                   = 2009-05-01T02:37:37.582662 10413.832803028174 0.077978144805
   DOPPLER_INSTANTANEOUS   = 2009-05-01T02:37:37.582662 4.116347014968 0.132818407129
   RANGE                   = 2009-05-01T02:37:37.782665 10411.996237763164 0.077965490997
   DOPPLER_INSTANTANEOUS   = 2009-05-01T02:37:37.782665 4.107708747124 0.132802623650
   RANGE                   = 2009-05-01T02:37:37.982668 10410.227097561630 0.077952837998
   DOPPLER_INSTANTANEOUS   = 2009-05-01T02:37:37.982668 4.107425811974 0.132786847961
   RANGE                   = 2009-05-01T02:37:38.182671 10408.817842131462 0.077940185809
   DOPPLER_INSTANTANEOUS   = 2009-05-01T02:37:38.182671 4.107179771901 0.132771080059
   RANGE                   = 2009-05-01T02:37:38.382674 10406.997429259909 0.077927534430
   DOPPLER_INSTANTANEOUS   = 2009-05-01T02:37:38.382674 4.106880512406 0.132755319939
   RANGE                   = 2009-05-01T02:37:38.582676 10405.411717381061 0.077914883864
   DOPPLER_INSTANTANEOUS   = 2009-05-01T02:37:38.582676 4.106545335568 0.132739567601
   RANGE                   = 2009-05-01T02:37:38.782679 10403.656796232477 0.077902234109
   DOPPLER_INSTANTANEOUS   = 2009-05-01T02:37:38.782679 4.106291706887 0.132723823039
   RANGE                   = 2009-05-01T02:37:38.982682 10402.070768271027 0.077889585168
   DOPPLER_INSTANTANEOUS   = 2009-05-01T02:37:38.982682 4.105984530178 0.132708086253
   RANGE                   = 2009-05-01T02:37:39.182685 10400.358446683753 0.077876937042
   DOPPLER_INSTANTANEOUS   = 2009-05-01T02:37:39.182685 4.105675032683 0.132692357239
   RANGE                   = 2009-05-01T02:37:39.382688 10398.682777745817 0.077864289730
   DOPPLER_INSTANTANEOUS   = 2009-05-01T02:37:39.382688 4.105359587001 0.132676635993
   RANGE                   = 2009-05-01T02:37:39.582690 10397.108168483735 0.077851643235
   DOPPLER_INSTANTANEOUS   = 2009-05-01T02:37:39.582690 4.105079543167 0.132660922514
   RANGE                   = 2009-05-01T02:37:39.782693 10395.419184797174 0.077838997556
   DOPPLER_INSTANTANEOUS   = 2009-05-01T02:37:39.782693 4.104804267420 0.132645216798
   RANGE                   = 2009-05-01T02:37:39.982696 10393.599671241929 0.077826352696
   DOPPLER_INSTANTANEOUS   = 2009-05-01T02:37:39.982696 4.104488195970 0.132629518843
   RANGE                   = 2009-05-01T02:37:40.182699 10391.972153870651 0.077813708654
   DOPPLER_INSTANTANEOUS   = 2009-05-01T02:37:40.182699 4.104183191264 0.132613828645
   RANGE                   = 2009-05-01T02:37:40.382702 10390.406512675791 0.077801065432
   DOPPLER_INSTANTANEOUS   = 2009-05-01T02:37:40.382702 4.103889698229 0.132598146202
   RANGE                   = 2009-05-01T02:37:40.582704 10388.740267863670 0.077788423030
   DOPPLER_INSTANTANEOUS   = 2009-05-01T02:37:40.582704 4.103600011769 0.132582471510
   RANGE                   = 2009-05-01T02:37:40.782707 10387.042074464427 0.077775781450
   DOPPLER_INSTANTANEOUS   = 2009-05-01T02:37:40.782707 4.103307795598 0.132566804568
   RANGE                   = 2009-05-01T02:37:40.982710 10385.444167160995 0.077763140692
   DOPPLER_INSTANTANEOUS   = 2009-05-01T02:37:40.982710 4.102991326555 0.132551145372
   RANGE                   = 2009-05-01T02:37:41.182713 10383.722843283867 0.077750498215
   DOPPLER_INSTANTANEOUS   = 2009-05-01T02:37:41.182713 4.102737020362 0.132535490771
   RANGE                   = 2009-05-01T02:37:41.382716 10381.988226367730 0.077737859105
   DOPPLER_INSTANTANEOUS   = 2009-05-01T02:37:41.382716 4.102395153573 0.132519847060
   RANGE                   = 2009-05-01T02:37:41.582718 10380.376459410516 0.077725220820
   DOPPLER_INSTANTANEOUS   = 2009-05-01T02:37:41.582718 4.102075507313 0.132504211087
   RANGE                   = 2009-05-01T02:37:41.782721 10378.817035788250 0.077712583361
   DOPPLER_INSTANTANEOUS   = 2009-05-01T02:37:41.782721 4.101785194696 0.132488582849
   RANGE                   = 2009-05-01T02:37:41.982724 10376.972303044722 0.077699946728
   DOPPLER_INSTANTANEOUS   = 2009-05-01T02:37:41.982724 4.101509232484 0.132472962342
   RANGE                   = 2009-05-01T02:37:42.182727 10375.425514653161 0.077687310924
   DOPPLER_INSTANTANEOUS   = 2009-05-01T02:37:42.182727 4.101206399274 0.132457349564
   RANGE                   = 2009-05-01T02:37:42.382730 10373.722265704324 0.077674675948
   DOPPLER_INSTANTANEOUS   = 2009-05-01T02:37:42.382730 4.100907566892 0.132441744513
   RANGE                   = 2009-05-01T02:37:42.582732 10372.054900143099 0.077662041802
   DOPPLER_INSTANTANEOUS   = 2009-05-01T02:37:42.582732 4.100568910071 0.132426147185
   RANGE                   = 2009-05-01T02:37:42.782735 10370.257572845467 0.077649408486
   DOPPLER_INSTANTANEOUS   = 2009-05-01T02:37:42.782735 4.100263147382 0.132410557577
   RANGE                   = 2009-05-01T02:37:42.982738 10368.819381995672 0.077636776002
   DOPPLER_INSTANTANEOUS   = 2009-05-01T02:37:42.982738 4.099955039558 0.132394975687
   RANGE                   = 2009-05-01T02:37:43.182741 10367.247647171793 0.077624144350
   DOPPLER_INSTANTANEOUS   = 2009-05-01T02:37:43.182741 4.099676245467 0.132379401512
   RANGE                   = 2009-05-01T02:37:43.382744 10365.528329996383 0.077611513532
   DOPPLER_INSTANTANEOUS   = 2009-05-01T02:37:43.382744 4.099386892381 0.132363835049
   RANGE                   = 2009-05-01T02:37:43.582747 10363.836335571812 0.077598883547
   DOPPLER_INSTANTANEOUS   = 2009-05-01T02:37:43.582747 4.099088086074 0.132348276295
   RANGE                   = 2009-05-01T02:37:43.782749 10362.077013778147 0.077586254398
   DOPPLER_INSTANTANEOUS   = 2009-05-01T02:37:43.782749 4.098785061401 0.132332725248
   RANGE                   = 2009-05-01T02:37:43.982752 10360.494316787685 0.077573626084
   DOPPLER_INSTANTANEOUS   = 2009-05-01T02:37:43.982752 4.098460943931 0.132317181903
   RANGE                   = 2009-05-01T02:37:44.182755 10358.744902152148 0.077560998608
   DOPPLER_INSTANTANEOUS   = 2009-05-01T02:37:44.182755 4.098168003101 0.132301646260
   RANGE                   = 2009-05-01T02:37:44.382758 10357.189544553234 0.077548371969
   DOPPLER_INSTANTANEOUS   = 2009-05-01T02:37:44.382758 4.097862189213 0.132286118314
   RANGE                   = 2009-05-01T02:37:44.582761 10355.513824239692 0.077535746169
   DOPPLER_INSTANTANEOUS   = 2009-05-01T02:37:44.582761 4.105794122561 0.132270598064
   RANGE                   = 2009-05-01T02:37:44.782763 10353.768475680048 0.077523121208
   DOPPLER_INSTANTANEOUS   = 2009-05-01T02:37:44.782763 4.105493553420 0.132255085505
   RANGE                   = 2009-05-01T02:37:44.982766 10352.261594339547 0.077510497088
   DOPPLER_INSTANTANEOUS   = 2009-05-01T02:37:44.982766 4.105180579056 0.132239580636
   RANGE                   = 2009-05-01T02:37:45.182769 10350.471711158154 0.077497873810
   DOPPLER_INSTANTANEOUS   = 2009-05-01T02:37:45.182769 4.104865538724 0.132224083454
   RANGE                   = 2009-05-01T02:37:45.382772 10348.885431369576 0.077485251373
   DOPPLER_INSTANTANEOUS   = 2009-05-01T02:37:45.382772 4.096352302927 0.132208593955
   RANGE                   = 2009-05-01T02:37:45.582775 10347.258156095233 0.077472629780
   DOPPLER_INSTANTANEOUS   = 2009-05-01T02:37:45.582775 4.096024472614 0.132193112137
   RANGE                   = 2009-05-01T02:37:45.782777 10345.536305102973 0.077460009032
   DOPPLER_INSTANTANEOUS   = 2009-05-01T02:37:45.782777 4.095728015576 0.132177637997
   RANGE                   = 2009-05-01T02:37:45.982780 10343.866074835552 0.077447389128
   DOPPLER_INSTANTANEOUS   = 2009-05-01T02:37:45.982780 4.095405089827 0.132162171532
   RANGE                   = 2009-05-01T02:37:46.182783 10342.218637952759 0.077434770071
   DOPPLER_INSTANTANEOUS   = 2009-05-01T02:37:46.182783 4.095119375713 0.132146712740
   RANGE                   = 2009-05-01T02:37:46.382786 10340.394025742873 0.077422151860
   DOPPLER_INSTANTANEOUS   = 2009-05-01T02:37:46.382786 4.094808720575 0.132131261617
   RANGE                   = 2009-05-01T02:37:46.582789 10338.849101683887 0.077409534497
   DOPPLER_INSTANTANEOUS   = 2009-05-01T02:37:46.582789 4.094470897014 0.132115818162
   RANGE                   = 2009-05-01T02:37:46.782791 10337.238003794881 0.077396917983
   DOPPLER_INSTANTANEOUS   = 2009-05-01T02:37:46.782791 4.094147978695 0.132100382370
   RANGE                   = 2009-05-01T02:37:46.982794 10335.714150782787 0.077384302319
   DOPPLER_INSTANTANEOUS   = 2009-05-01T02:37:46.982794 4.093863208418 0.132084954239
   RANGE                   = 2009-05-01T02:37:47.182797 10333.880945488329 0.077371687505
   DOPPLER_INSTANTANEOUS   = 2009-05-01T02:37:47.182797 4.093555515307 0.132069533767
   RANGE                   = 2009-05-01T02:37:47.382800 10332.143941466955 0.077359073543
   DOPPLER_INSTANTANEOUS   = 2009-05-01T02:37:47.382800 4.093270679133 0.132054120951
   RANGE                   = 2009-05-01T02:37:47.582803 10330.616762836442 0.077346460433
   DOPPLER_INSTANTANEOUS   = 2009-05-01T02:37:47.582803 4.092961521161 0.132038715787
   RANGE                   = 2009-05-01T02:37:47.782805 10328.824310356067 0.077333848177
   DOPPLER_INSTANTANEOUS   = 2009-05-01T02:37:47.782805 4.092620502309 0.132023318273
   RANGE                   = 2009-05-01T02:37:47.982808 10327.221429726067 0.077321236775
   DOPPLER_INSTANTANEOUS   = 2009-05-01T02:37:47.982808 4.092364503409 0.132007928407
   RANGE                   = 2009-05-01T02:37:48.182811 10325.568580484574 0.077308626228
   DOPPLER_INSTANTANEOUS   = 2009-05-01T02:37:48.182811 4.092027690229 0.131992546184
   RANGE                   = 2009-05-01T02:37:48.382814 10323.873774355672 0.077296016537
   DOPPLER_INSTANTANEOUS   = 2009-05-01T02:37:48.382814 4.091719462401 0.131977171604
   RANGE                   = 2009-05-01T02:37:48.582817 10322.149029228312 0.077283405167
   DOPPLER_INSTANTANEOUS   = 2009-05-01T02:37:48.582817 4.091389279844 0.131961801571
   RANGE                   = 2009-05-01T02:37:48.782820 10320.688734594325 0.077270797192
   DOPPLER_INSTANTANEOUS   = 2009-05-01T02:37:48.782820 4.091095786987 0.131946442267
   RANGE                   = 2009-05-01T02:37:48.982822 10319.085006842801 0.077258190075
   DOPPLER_INSTANTANEOUS   = 2009-05-01T02:37:48.982822 4.090774129003 0.131931090596
   RANGE                   = 2009-05-01T02:37:49.182825 10317.409146642674 0.077245583819
   DOPPLER_INSTANTANEOUS   = 2009-05-01T02:37:49.182825 4.090439609675 0.131915746556
   RANGE                   = 2009-05-01T02:37:49.382828 10315.708096410757 0.077232978423
   DOPPLER_INSTANTANEOUS   = 2009-05-01T02:37:49.382828 4.090153244754 0.131900410143
   RANGE                   = 2009-05-01T02:37:49.582831 10314.028518826366 0.077220373889
   DOPPLER_INSTANTANEOUS   = 2009-05-01T02:37:49.582831 4.089843118326 0.131885081354
   RANGE                   = 2009-05-01T02:37:49.782833 10312.303390036963 0.077207770217
   DOPPLER_INSTANTANEOUS   = 2009-05-01T02:37:49.782833 4.089520195373 0.131869760188
   RANGE                   = 2009-05-01T02:37:49.982836 10310.650622269002 0.077195167410
   DOPPLER_INSTANTANEOUS   = 2009-05-01T02:37:49.982836 4.089183444784 0.131854446641
   RANGE                   = 2009-05-01T02:37:50.182839 10309.046092340328 0.077182565466
   DOPPLER_INSTANTANEOUS   = 2009-05-01T02:37:50.182839 4.088905868537 0.131839140711
   RANGE                   = 2009-05-01T02:37:50.382842 10307.497075161418 0.077169964388
   DOPPLER_INSTANTANEOUS   = 2009-05-01T02:37:50.382842 4.088562620112 0.131823842395
   RANGE                   = 2009-05-01T02:37:50.582845 10305.809065372374 0.077157364177
   DOPPLER_INSTANTANEOUS   = 2009-05-01T02:37:50.582845 4.088254841879 0.131808551689
   RANGE                   = 2009-05-01T02:37:50.782847 10304.050426478057 0.077144764832
   DOPPLER_INSTANTANEOUS   = 2009-05-01T02:37:50.782847 4.087925004298 0.131793268591
   RANGE                   = 2009-05-01T02:37:50.982850 10302.411443822610 0.077132166356
   DOPPLER_INSTANTANEOUS   = 2009-05-01T02:37:50.982850 4.087600143324 0.131777993099
   RANGE                   = 2009-05-01T02:37:51.182853 10300.741214168649 0.077119568750
   DOPPLER_INSTANTANEOUS   = 2009-05-01T02:37:51.182853 4.087273899386 0.131762725210
   RANGE                   = 2009-05-01T02:37:51.382856 10299.074586637191 0.077106972013
   DOPPLER_INSTANTANEOUS   = 2009-05-01T02:37:51.382856 4.086977976923 0.131747464920
   RANGE                   = 2009-05-01T02:37:51.582859 10297.436597233134 0.077094376147
   DOPPLER_INSTANTANEOUS   = 2009-05-01T02:37:51.582859 4.086688685291 0.131732212227
   RANGE                   = 2009-05-01T02:37:51.782861 10295.687379603089 0.077081781153
   DOPPLER_INSTANTANEOUS   = 2009-05-01T02:37:51.782861 4.086363993890 0.131716967129
   RANGE                   = 2009-05-01T02:37:51.982864 10294.094886049103 0.077069187032
   DOPPLER_INSTANTANEOUS   = 2009-05-01T02:37:51.982864 4.094268203128 0.131701729622
   RANGE                   = 2009-05-01T02:37:52.182867 10292.445921086011 0.077056593785
   DOPPLER_INSTANTANEOUS   = 2009-05-01T02:37:52.182867 4.093937884381 0.131686499704
   RANGE                   = 2009-05-01T02:37:52.382870 10290.892316890282 0.077044001413
   DOPPLER_INSTANTANEOUS   = 2009-05-01T02:37:52.382870 4.093615250635 0.131671277372
   RANGE                   = 2009-05-01T02:37:52.582873 10289.134978798123 0.077031409916
   DOPPLER_INSTANTANEOUS   = 2009-05-01T02:37:52.582873 4.093312117671 0.131656062623
   RANGE                   = 2009-05-01T02:37:52.782876 10287.374186410463 0.077018819296
   DOPPLER_INSTANTANEOUS   = 2009-05-01T02:37:52.782876 4.084793740838 0.131640855455
   RANGE                   = 2009-05-01T02:37:52.982878 10285.959770662370 0.077006229554
   DOPPLER_INSTANTANEOUS   = 2009-05-01T02:37:52.982878 4.084480661560 0.131625655864
   RANGE                   = 2009-05-01T02:37:53.182881 10284.117804268370 0.076993640690
   DOPPLER_INSTANTANEOUS   = 2009-05-01T02:37:53.182881 4.084139814999 0.131610463849
   RANGE                   = 2009-05-01T02:37:53.382884 10282.482418985415 0.076981052706
   DOPPLER_INSTANTANEOUS   = 2009-05-01T02:37:53.382884 4.083854185636 0.131595279405
   RANGE                   = 2009-05-01T02:37:53.582887 10280.632887636100 0.076968465602
   DOPPLER_INSTANTANEOUS   = 2009-05-01T02:37:53.582887 4.083480747527 0.131580102531
   RANGE                   = 2009-05-01T02:37:53.782889 10279.201405901651 0.076955879379
   DOPPLER_INSTANTANEOUS   = 2009-05-01T02:37:53.782889 4.083203531078 0.131564933224
   RANGE                   = 2009-05-01T02:37:53.982892 10277.670155202699 0.076943294039
   DOPPLER_INSTANTANEOUS   = 2009-05-01T02:37:53.982892 4.082862506983 0.131549771481
   RANGE                   = 2009-05-01T02:37:54.182895 10275.808036966593 0.076930709582
   DOPPLER_INSTANTANEOUS   = 2009-05-01T02:37:54.182895 4.082578845991 0.131534617298
   RANGE                   = 2009-05-01T02:37:54.382898 10274.418309396160 0.076918126009
   DOPPLER_INSTANTANEOUS   = 2009-05-01T02:37:54.382898 4.082229457459 0.131519470675
   RANGE                   = 2009-05-01T02:37:54.582901 10272.544263813939 0.076905543321
   DOPPLER_INSTANTANEOUS   = 2009-05-01T02:37:54.582901 4.081913695662 0.131504331606
   RANGE                   = 2009-05-01T02:37:54.782903 10271.042935693557 0.076892961520
   DOPPLER_INSTANTANEOUS   = 2009-05-01T02:37:54.782903 4.081588811958 0.131489200091
   RANGE                   = 2009-05-01T02:37:54.982906 10269.335227975344 0.076880380605
   DOPPLER_INSTANTANEOUS   = 2009-05-01T02:37:54.982906 4.081250431694 0.131474076126
   RANGE                   = 2009-05-01T02:37:55.182909 10267.594041678398 0.076867800578
   DOPPLER_INSTANTANEOUS   = 2009-05-01T02:37:55.182909 4.080918057559 0.131458959709
   RANGE                   = 2009-05-01T02:37:55.382912 10266.045890563941 0.076855221440
   DOPPLER_INSTANTANEOUS   = 2009-05-01T02:37:55.382912 4.080637894387 0.131443850836
   RANGE                   = 2009-05-01T02:37:55.582915 10264.366430056651 0.076842643192
   DOPPLER_INSTANTANEOUS   = 2009-05-01T02:37:55.582915 4.080301807941 0.131428749505
   RANGE                   = 2009-05-01T02:37:55.782917 10262.627913891309 0.076830065835
   DOPPLER_INSTANTANEOUS   = 2009-05-01T02:37:55.782917 4.079964975472 0.131413655714
   RANGE                   = 2009-05-01T02:37:55.982920 10260.987668013227 0.076817486840
   DOPPLER_INSTANTANEOUS   = 2009-05-01T02:37:55.982920 4.079678069058 0.131398566425
   RANGE                   = 2009-05-01T02:37:56.182923 10259.324721670249 0.076804911267
   DOPPLER_INSTANTANEOUS   = 2009-05-01T02:37:56.182923 4.079318778318 0.131383487705
   RANGE                   = 2009-05-01T02:37:56.382926 10257.745137154909 0.076792336589
   DOPPLER_INSTANTANEOUS   = 2009-05-01T02:37:56.382926 4.079016187082 0.131368416516
   RANGE                   = 2009-05-01T02:37:56.582929 10256.009150027927 0.076779762804
   DOPPLER_INSTANTANEOUS   = 2009-05-01T02:37:56.582929 4.078670015580 0.131353352856
   RANGE                   = 2009-05-01T02:37:56.782931 10254.496051761736 0.076767189915
   DOPPLER_INSTANTANEOUS   = 2009-05-01T02:37:56.782931 4.078334653775 0.131338296721
   RANGE                   = 2009-05-01T02:37:56.982934 10252.703730345318 0.076754617923
   DOPPLER_INSTANTANEOUS   = 2009-05-01T02:37:56.982934 4.078032076016 0.131323248109
   RANGE                   = 2009-05-01T02:37:57.182937 10251.065427849724 0.076742046828
   DOPPLER_INSTANTANEOUS   = 2009-05-01T02:37:57.182937 4.077702448344 0.131308207017
   RANGE                   = 2009-05-01T02:37:57.382940 10249.577434371822 0.076729476632
   DOPPLER_INSTANTANEOUS   = 2009-05-01T02:37:57.382940 4.077374276057 0.131293173443
   RANGE                   = 2009-05-01T02:37:57.582942 10247.838339594193 0.076716907335
   DOPPLER_INSTANTANEOUS   = 2009-05-01T02:37:57.582942 4.077025850636 0.131278147383
   RANGE                   = 2009-05-01T02:37:57.782945 10246.217308914398 0.076704338938
   DOPPLER_INSTANTANEOUS   = 2009-05-01T02:37:57.782945 4.076708181080 0.131263128835
   RANGE                   = 2009-05-01T02:37:57.982948 10244.322678411858 0.076691771443
   DOPPLER_INSTANTANEOUS   = 2009-05-01T02:37:57.982948 4.076397410991 0.131248117796
   RANGE                   = 2009-05-01T02:37:58.182951 10242.919859704612 0.076679204849
   DOPPLER_INSTANTANEOUS   = 2009-05-01T02:37:58.182951 4.076050351965 0.131233114264
   RANGE                   = 2009-05-01T02:37:58.382954 10241.196812284588 0.076666639159
   DOPPLER_INSTANTANEOUS   = 2009-05-01T02:37:58.382954 4.075744804247 0.131218118236
   RANGE                   = 2009-05-01T02:37:58.582957 10239.625736578686 0.076654074373
   DOPPLER_INSTANTANEOUS   = 2009-05-01T02:37:58.582957 4.075435830051 0.131203129709
   RANGE                   = 2009-05-01T02:37:58.782959 10237.814303504701 0.076641510493
   DOPPLER_INSTANTANEOUS   = 2009-05-01T02:37:58.782959 4.075086422597 0.131188148680
   RANGE                   = 2009-05-01T02:37:58.982962 10236.143528911649 0.076628947518
   DOPPLER_INSTANTANEOUS   = 2009-05-01T02:37:58.982962 4.074762201922 0.131173175147
   RANGE                   = 2009-05-01T02:37:59.182965 10234.552722017950 0.076616385450
   DOPPLER_INSTANTANEOUS   = 2009-05-01T02:37:59.182965 4.074451476555 0.131158209106
   RANGE                   = 2009-05-01T02:37:59.382968 10232.882216312979 0.076603824290
   DOPPLER_INSTANTANEOUS   = 2009-05-01T02:37:59.382968 4.082313539683 0.131143250556
   RANGE                   = 2009-05-01T02:37:59.582970 10231.357129966958 0.076591264039
   DOPPLER_INSTANTANEOUS   = 2009-05-01T02:37:59.582970 4.081961544685 0.131128299494
   RANGE                   = 2009-05-01T02:37:59.782973 10229.564347322730 0.076578704698
   DOPPLER_INSTANTANEOUS   = 2009-05-01T02:37:59.782973 4.081626536828 0.131113355916
   RANGE                   = 2009-05-01T02:37:59.982976 10228.064169870318 0.076566146268
   DOPPLER_INSTANTANEOUS   = 2009-05-01T02:37:59.982976 4.081312459885 0.131098419820
   RANGE                   = 2009-05-01T02:38:00.182979 10226.422302125693 0.076553588750
   DOPPLER_INSTANTANEOUS   = 2009-05-01T02:38:00.182979 4.072773391146 0.131083491204
   RANGE                   = 2009-05-01T02:38:00.382982 10224.759322645161 0.076541032144
   DOPPLER_INSTANTANEOUS   = 2009-05-01T02:38:00.382982 4.072463758375 0.131068570065
   RANGE                   = 2009-05-01T02:38:00.582984 10223.037294915810 0.076528476452
   DOPPLER_INSTANTANEOUS   = 2009-05-01T02:38:00.582984 4.072125290761 0.131053656399
   RANGE                   = 2009-05-01T02:38:00.782987 10221.289385795417 0.076515921675
   DOPPLER_INSTANTANEOUS   = 2009-05-01T02:38:00.782987 4.071791099616 0.131038750205
   RANGE                   = 2009-05-01T02:38:00.982990 10219.730029771416 0.076503367814
   DOPPLER_INSTANTANEOUS   = 2009-05-01T02:38:00.982990 4.071480525184 0.131023851479
   RANGE                   = 2009-05-01T02:38:01.182993 10218.059098962362 0.076490814869
   DOPPLER_INSTANTANEOUS   = 2009-05-01T02:38:01.182993 4.071119962007 0.131008960220
   RANGE                   = 2009-05-01T02:38:01.382996 10216.444620815757 0.076478262841
   DOPPLER_INSTANTANEOUS   = 2009-05-01T02:38:01.382996 4.070804763736 0.130994076423
   RANGE                   = 2009-05-01T02:38:01.582998 10214.751105146102 0.076465711733
   DOPPLER_INSTANTANEOUS   = 2009-05-01T02:38:01.582998 4.070475633986 0.130979200087
   RANGE                   = 2009-05-01T02:38:01.783001 10213.066311478533 0.076453161544
   DOPPLER_INSTANTANEOUS   = 2009-05-01T02:38:01.783001 4.070150438659 0.130964331209
   RANGE                   = 2009-05-01T02:38:01.983004 10211.324353664677 0.076440612275
   DOPPLER_INSTANTANEOUS   = 2009-05-01T02:38:01.983004 4.069815966769 0.130949469786
   RANGE                   = 2009-05-01T02:38:02.183007 10209.866019350513 0.076428063928
   DOPPLER_INSTANTANEOUS   = 2009-05-01T02:38:02.183007 4.069466436329 0.130934615816
   RANGE                   = 2009-05-01T02:38:02.383009 10208.207099818355 0.076415516503
   DOPPLER_INSTANTANEOUS   = 2009-05-01T02:38:02.383009 4.069143403804 0.130919769295
   RANGE                   = 2009-05-01T02:38:02.583012 10206.570886893516 0.076402970001
   DOPPLER_INSTANTANEOUS   = 2009-05-01T02:38:02.583012 4.068791602569 0.130904930222
   RANGE                   = 2009-05-01T02:38:02.783015 10204.932284880473 0.076390424424
   DOPPLER_INSTANTANEOUS   = 2009-05-01T02:38:02.783015 4.068493007091 0.130890098592
   RANGE                   = 2009-05-01T02:38:02.983018 10203.236936446927 0.076377879773
   DOPPLER_INSTANTANEOUS   = 2009-05-01T02:38:02.983018 4.068124599853 0.130875274405
   RANGE                   = 2009-05-01T02:38:03.183021 10201.531635360016 0.076365336047
   DOPPLER_INSTANTANEOUS   = 2009-05-01T02:38:03.183021 4.067818865425 0.130860457656
   RANGE                   = 2009-05-01T02:38:03.383024 10200.021398004437 0.076352790726
   DOPPLER_INSTANTANEOUS   = 2009-05-01T02:38:03.383024 4.067457063394 0.130845645366
   RANGE                   = 2009-05-01T02:38:03.583026 10198.311693868367 0.076340248857
   DOPPLER_INSTANTANEOUS   = 2009-05-01T02:38:03.583026 4.067134355662 0.130830843489
   RANGE                   = 2009-05-01T02:38:03.783029 10196.657466749795 0.076327707916
   DOPPLER_INSTANTANEOUS   = 2009-05-01T02:38:03.783029 4.066772566743 0.130816049043
   RANGE                   = 2009-05-01T02:47:15.788725 6858.797703639440 0.050704532601
   DOPPLER_INSTANTANEOUS   = 2009-05-01T02:47:15.788725 0.975762052493 0.112257623895
   RANGE                   = 2009-05-01T02:47:15.988726 6858.399591423685 0.050701220460
   DOPPLER_INSTANTANEOUS   = 2009-05-01T02:47:15.988726 0.973631799316 0.112258160908
   RANGE                   = 2009-05-01T02:47:16.188727 6858.062785176686 0.050697914906
   DOPPLER_INSTANTANEOUS   = 2009-05-01T02:47:16.188727 0.971491673001 0.112258704181
   RANGE                   = 2009-05-01T02:47:16.388727 6857.598247631418 0.050694615941
   DOPPLER_INSTANTANEOUS   = 2009-05-01T02:47:16.388727 0.967403257662 0.112259253717
   RANGE                   = 2009-05-01T02:47:16.588728 6857.272362311858 0.050691323566
   DOPPLER_INSTANTANEOUS   = 2009-05-01T02:47:16.588728 0.965280114708 0.112259809522
   RANGE                   = 2009-05-01T02:47:16.788729 6856.753591119511 0.050688037784
   DOPPLER_INSTANTANEOUS   = 2009-05-01T02:47:16.788729 0.963135770280 0.112260371598
   RANGE                   = 2009-05-01T02:47:16.988729 6856.371900383569 0.050684758597
   DOPPLER_INSTANTANEOUS   = 2009-05-01T02:47:16.988729 0.961021214124 0.112260939951
   RANGE                   = 2009-05-01T02:47:17.188730 6855.931773820177 0.050681486007
   DOPPLER_INSTANTANEOUS   = 2009-05-01T02:47:17.188730 0.958883289740 0.112261514585
   RANGE                   = 2009-05-01T02:47:17.388731 6855.597962732419 0.050678220016
   DOPPLER_INSTANTANEOUS   = 2009-05-01T02:47:17.388731 0.956737218077 0.112262095503
   RANGE                   = 2009-05-01T02:47:17.588732 6855.149549871792 0.050674960626
   DOPPLER_INSTANTANEOUS   = 2009-05-01T02:47:17.588732 0.954615129009 0.112262682711
   RANGE                   = 2009-05-01T02:47:17.788733 6854.625347296690 0.050671707839
   DOPPLER_INSTANTANEOUS   = 2009-05-01T02:47:17.788733 0.952480368502 0.112263276212
   RANGE                   = 2009-05-01T02:47:17.988733 6854.208675932209 0.050668461659
   DOPPLER_INSTANTANEOUS   = 2009-05-01T02:47:17.988733 0.950343666288 0.112263876011
   RANGE                   = 2009-05-01T02:47:18.188734 6853.984801715052 0.050665222085
   DOPPLER_INSTANTANEOUS   = 2009-05-01T02:47:18.188734 0.948216815650 0.112264482112
   RANGE                   = 2009-05-01T02:47:18.388735 6853.567197398953 0.050661989121
   DOPPLER_INSTANTANEOUS   = 2009-05-01T02:47:18.388735 0.946080042038 0.112265094519
   RANGE                   = 2009-05-01T02:47:18.588735 6853.107795526794 0.050658762769
   DOPPLER_INSTANTANEOUS   = 2009-05-01T02:47:18.588735 0.943933858940 0.112265713237
   RANGE                   = 2009-05-01T02:47:18.788736 6852.662031246239 0.050655543031
   DOPPLER_INSTANTANEOUS   = 2009-05-01T02:47:18.788736 0.941784441769 0.112266338269
   RANGE                   = 2009-05-01T02:47:18.988737 6852.268851340321 0.050652329908
   DOPPLER_INSTANTANEOUS   = 2009-05-01T02:47:18.988737 0.939656707353 0.112266969621
   RANGE                   = 2009-05-01T02:47:19.188737 6851.964087484954 0.050649123404
   DOPPLER_INSTANTANEOUS   = 2009-05-01T02:47:19.188737 0.937527221193 0.112267607297
   RANGE                   = 2009-05-01T02:47:19.388738 6851.470163940587 0.050645923520
   DOPPLER_INSTANTANEOUS   = 2009-05-01T02:47:19.388738 0.935392586099 0.112268251300
   RANGE                   = 2009-05-01T02:47:19.588739 6851.149564070754 0.050642730257
   DOPPLER_INSTANTANEOUS   = 2009-05-01T02:47:19.588739 0.933231565406 0.112268901636
   RANGE                   = 2009-05-01T02:47:19.788740 6850.760439390327 0.050639542979
   DOPPLER_INSTANTANEOUS   = 2009-05-01T02:47:19.788740 0.931102369349 0.112269558441
   RANGE                   = 2009-05-01T02:47:19.988740 6850.273922327402 0.050636362968
   DOPPLER_INSTANTANEOUS   = 2009-05-01T02:47:19.988740 0.928976276772 0.112270221455
   RANGE                   = 2009-05-01T02:47:20.188741 6849.927436645340 0.050633189586
   DOPPLER_INSTANTANEOUS   = 2009-05-01T02:47:20.188741 0.926813406892 0.112270890815
   RANGE                   = 2009-05-01T02:47:20.388742 6849.458494104435 0.050630022835
   DOPPLER_INSTANTANEOUS   = 2009-05-01T02:47:20.388742 0.924664596758 0.112271566524
   RANGE                   = 2009-05-01T02:47:20.588742 6849.180955786423 0.050626862715
   DOPPLER_INSTANTANEOUS   = 2009-05-01T02:47:20.588742 0.922531013639 0.112272248588
   RANGE                   = 2009-05-01T02:47:20.788743 6848.693836192646 0.050623709231
   DOPPLER_INSTANTANEOUS   = 2009-05-01T02:47:20.788743 0.920387044258 0.112272937010
   RANGE                   = 2009-05-01T02:47:20.988744 6848.399623773186 0.050620562383
   DOPPLER_INSTANTANEOUS   = 2009-05-01T02:47:20.988744 0.918232810531 0.112273631795
   RANGE                   = 2009-05-01T02:47:21.188745 6847.943855663660 0.050617422174
   DOPPLER_INSTANTANEOUS   = 2009-05-01T02:47:21.188745 0.916097553399 0.112274332947
   RANGE                   = 2009-05-01T02:47:21.388745 6847.575919873677 0.050614288605
   DOPPLER_INSTANTANEOUS   = 2009-05-01T02:47:21.388745 0.913949686674 0.112275040471
   RANGE                   = 2009-05-01T02:47:21.588746 6847.177288114326 0.050611161679
   DOPPLER_INSTANTANEOUS   = 2009-05-01T02:47:21.588746 0.911813339830 0.112275754371
   RANGE                   = 2009-05-01T02:47:21.788747 6846.840164908986 0.050608041398
   DOPPLER_INSTANTANEOUS   = 2009-05-01T02:47:21.788747 0.909670680721 0.112276474652
   RANGE                   = 2009-05-01T02:47:21.988747 6846.387226485953 0.050604927764
   DOPPLER_INSTANTANEOUS   = 2009-05-01T02:47:21.988747 0.907521305855 0.112277201318
   RANGE                   = 2009-05-01T02:47:22.188748 6845.991866711528 0.050601820780
   DOPPLER_INSTANTANEOUS   = 2009-05-01T02:47:22.188748 0.905364830715 0.112277934374
   RANGE                   = 2009-05-01T02:47:22.388749 6845.572498906575 0.050598720446
   DOPPLER_INSTANTANEOUS   = 2009-05-01T02:47:22.388749 0.903204567636 0.112278673823
   RANGE                   = 2009-05-01T02:47:22.588749 6845.220630212411 0.050595626765
   DOPPLER_INSTANTANEOUS   = 2009-05-01T02:47:22.588749 0.901073985653 0.112279419672
   RANGE                   = 2009-05-01T02:47:22.788750 6844.820803203381 0.050592539739
   DOPPLER_INSTANTANEOUS   = 2009-05-01T02:47:22.788750 0.898918445259 0.112280171923
   RANGE                   = 2009-05-01T02:47:22.988751 6844.359100416057 0.050589459370
   DOPPLER_INSTANTANEOUS   = 2009-05-01T02:47:22.988751 0.896772589304 0.112280930581
   RANGE                   = 2009-05-01T02:47:23.188751 6844.143218659178 0.050586385661
   DOPPLER_INSTANTANEOUS   = 2009-05-01T02:47:23.188751 0.896424188371 0.112281695652
   RANGE                   = 2009-05-01T02:47:23.388752 6843.700780309428 0.050583318613
   DOPPLER_INSTANTANEOUS   = 2009-05-01T02:47:23.388752 0.894265201363 0.112282467139
   RANGE                   = 2009-05-01T02:47:23.588753 6843.209663079565 0.050580258228
   DOPPLER_INSTANTANEOUS   = 2009-05-01T02:47:23.588753 0.892106490434 0.112283245048
   RANGE                   = 2009-05-01T02:47:23.788754 6842.945135290238 0.050577204509
   DOPPLER_INSTANTANEOUS   = 2009-05-01T02:47:23.788754 0.888164468080 0.112284029382
   RANGE                   = 2009-05-01T02:47:23.988754 6842.515430569023 0.050574157456
   DOPPLER_INSTANTANEOUS   = 2009-05-01T02:47:23.988754 0.886013944080 0.112284820146
   RANGE                   = 2009-05-01T02:47:24.188755 6842.233613265686 0.050571117074
   DOPPLER_INSTANTANEOUS   = 2009-05-01T02:47:24.188755 0.883851542155 0.112285617345
   RANGE                   = 2009-05-01T02:47:24.388756 6841.737005065726 0.050568083362
   DOPPLER_INSTANTANEOUS   = 2009-05-01T02:47:24.388756 0.881708177935 0.112286420983
   RANGE                   = 2009-05-01T02:47:24.588756 6841.343930243507 0.050565056324
   DOPPLER_INSTANTANEOUS   = 2009-05-01T02:47:24.588756 0.879546358231 0.112287231065
   RANGE                   = 2009-05-01T02:47:24.788757 6841.013532825508 0.050562035962
   DOPPLER_INSTANTANEOUS   = 2009-05-01T02:47:24.788757 0.877381577254 0.112288047595
   RANGE                   = 2009-05-01T02:47:24.988757 6840.623699053468 0.050559022277
   DOPPLER_INSTANTANEOUS   = 2009-05-01T02:47:24.988757 0.875232367951 0.112288870579
   RANGE                   = 2009-05-01T02:47:25.188758 6840.280113917651 0.050556015271
   DOPPLER_INSTANTANEOUS   = 2009-05-01T02:47:25.188758 0.873071755869 0.112289700020
   RANGE                   = 2009-05-01T02:47:25.388759 6839.882621517640 0.050553014947
   DOPPLER_INSTANTANEOUS   = 2009-05-01T02:47:25.388759 0.870919303372 0.112290535924
   RANGE                   = 2009-05-01T02:47:25.588759 6839.541802549194 0.050550021306
   DOPPLER_INSTANTANEOUS   = 2009-05-01T02:47:25.588759 0.868762119598 0.112291378294
   RANGE                   = 2009-05-01T02:47:25.788760 6839.224534348319 0.050547034351
   DOPPLER_INSTANTANEOUS   = 2009-05-01T02:47:25.788760 0.866602706244 0.112292227136
   RANGE                   = 2009-05-01T02:47:25.988761 6838.740129758240 0.050544054084
   DOPPLER_INSTANTANEOUS   = 2009-05-01T02:47:25.988761 0.864448868080 0.112293082454
   RANGE                   = 2009-05-01T02:47:26.188761 6838.450488510864 0.050541080506
   DOPPLER_INSTANTANEOUS   = 2009-05-01T02:47:26.188761 0.862280043501 0.112293944253
   RANGE                   = 2009-05-01T02:47:26.388762 6837.984946028905 0.050538113620
   DOPPLER_INSTANTANEOUS   = 2009-05-01T02:47:26.388762 0.860122361176 0.112294812537
   RANGE                   = 2009-05-01T02:47:26.588763 6837.646480890373 0.050535153427
   DOPPLER_INSTANTANEOUS   = 2009-05-01T02:47:26.588763 0.857965614035 0.112295687312
   RANGE                   = 2009-05-01T02:47:26.788764 6837.257709198305 0.050532199930
   DOPPLER_INSTANTANEOUS   = 2009-05-01T02:47:26.788764 0.855799706246 0.112296568581
   RANGE                   = 2009-05-01T02:47:26.988764 6836.862965006618 0.050529253130
   DOPPLER_INSTANTANEOUS   = 2009-05-01T02:47:26.988764 0.853637979204 0.112297456350
   RANGE                   = 2009-05-01T02:47:27.188765 6836.571732725462 0.050526312439
   DOPPLER_INSTANTANEOUS   = 2009-05-01T02:47:27.188765 0.851468649784 0.112298350803
   RANGE                   = 2009-05-01T02:47:27.388765 6836.238747875674 0.050523379042
   DOPPLER_INSTANTANEOUS   = 2009-05-01T02:47:27.388765 0.849308600945 0.112299251587
   RANGE                   = 2009-05-01T02:47:27.588766 6835.869891871049 0.050520452348
   DOPPLER_INSTANTANEOUS   = 2009-05-01T02:47:27.588766 0.847147238584 0.112300158884
   RANGE                   = 2009-05-01T02:47:27.788767 6835.428812587427 0.050517532360
   DOPPLER_INSTANTANEOUS   = 2009-05-01T02:47:27.788767 0.844989796332 0.112301072699
   RANGE                   = 2009-05-01T02:47:27.988767 6835.098753693454 0.050514619079
   DOPPLER_INSTANTANEOUS   = 2009-05-01T02:47:27.988767 0.842816203316 0.112301993038
   RANGE                   = 2009-05-01T02:47:28.188768 6834.664044891528 0.050511712508
   DOPPLER_INSTANTANEOUS   = 2009-05-01T02:47:28.188768 0.840646314319 0.112302919904
   RANGE                   = 2009-05-01T02:47:28.388769 6834.344792241054 0.050508812649
   DOPPLER_INSTANTANEOUS   = 2009-05-01T02:47:28.388769 0.838488874430 0.112303853303
   RANGE                   = 2009-05-01T02:47:28.588769 6834.000125525152 0.050505919503
   DOPPLER_INSTANTANEOUS   = 2009-05-01T02:47:28.588769 0.836321151086 0.112304793240
   RANGE                   = 2009-05-01T02:47:28.788770 6833.653356389095 0.050503033072
   DOPPLER_INSTANTANEOUS   = 2009-05-01T02:47:28.788770 0.834155165012 0.112305739718
   RANGE                   = 2009-05-01T02:47:28.988770 6833.331190103111 0.050500153359
   DOPPLER_INSTANTANEOUS   = 2009-05-01T02:47:28.988770 0.831976628415 0.112306692744
   RANGE                   = 2009-05-01T02:47:29.188771 6832.791907554513 0.050497280365
   DOPPLER_INSTANTANEOUS   = 2009-05-01T02:47:29.188771 0.829802616722 0.112307652321
   RANGE                   = 2009-05-01T02:47:29.388772 6832.550549051343 0.050494414092
   DOPPLER_INSTANTANEOUS   = 2009-05-01T02:47:29.388772 0.827644406580 0.112308618455
   RANGE                   = 2009-05-01T02:47:29.588773 6832.229440629301 0.050491554543
   DOPPLER_INSTANTANEOUS   = 2009-05-01T02:47:29.588773 0.825478318525 0.112309591150
   RANGE                   = 2009-05-01T02:47:29.788773 6831.917741473282 0.050488701719
   DOPPLER_INSTANTANEOUS   = 2009-05-01T02:47:29.788773 0.823314510409 0.112310570412
   RANGE                   = 2009-05-01T02:47:29.988774 6831.466296850983 0.050485855622
   DOPPLER_INSTANTANEOUS   = 2009-05-01T02:47:29.988774 0.821135901697 0.112311556244
   RANGE                   = 2009-05-01T02:47:30.188774 6831.101881357792 0.050483016255
   DOPPLER_INSTANTANEOUS   = 2009-05-01T02:47:30.188774 0.818963081338 0.112312548653
   RANGE                   = 2009-05-01T02:47:30.388775 6830.803579777229 0.050480183619
   DOPPLER_INSTANTANEOUS   = 2009-05-01T02:47:30.388775 0.816782873168 0.112313547642
   RANGE                   = 2009-05-01T02:47:30.588776 6830.499316776572 0.050477357716
   DOPPLER_INSTANTANEOUS   = 2009-05-01T02:47:30.588776 0.816249521058 0.112314553217
   RANGE                   = 2009-05-01T02:47:30.788776 6830.127300795896 0.050474538548
   DOPPLER_INSTANTANEOUS   = 2009-05-01T02:47:30.788776 0.814082580111 0.112315565382
   RANGE                   = 2009-05-01T02:47:30.988777 6829.808984284080 0.050471726117
   DOPPLER_INSTANTANEOUS   = 2009-05-01T02:47:30.988777 0.811905583847 0.112316584143
   RANGE                   = 2009-05-01T02:47:31.188777 6829.306798198054 0.050468920425
   DOPPLER_INSTANTANEOUS   = 2009-05-01T02:47:31.188777 0.809725744118 0.112317609504
   RANGE                   = 2009-05-01T02:47:31.388778 6829.069716116313 0.050466121474
   DOPPLER_INSTANTANEOUS   = 2009-05-01T02:47:31.388778 0.805924580326 0.112318641470
   RANGE                   = 2009-05-01T02:47:31.588779 6828.782111032263 0.050463329266
   DOPPLER_INSTANTANEOUS   = 2009-05-01T02:47:31.588779 0.803751232950 0.112319680047
   RANGE                   = 2009-05-01T02:47:31.788779 6828.358541615616 0.050460543802
   DOPPLER_INSTANTANEOUS   = 2009-05-01T02:47:31.788779 0.801578513454 0.112320725238
   RANGE                   = 2009-05-01T02:47:31.988780 6827.996931081486 0.050457765086
   DOPPLER_INSTANTANEOUS   = 2009-05-01T02:47:31.988780 0.799406844510 0.112321777049
   RANGE                   = 2009-05-01T02:47:32.188781 6827.705741242274 0.050454993118
   DOPPLER_INSTANTANEOUS   = 2009-05-01T02:47:32.188781 0.797214478187 0.112322835486
   RANGE                   = 2009-05-01T02:47:32.388781 6827.280186669891 0.050452227901
   DOPPLER_INSTANTANEOUS   = 2009-05-01T02:47:32.388781 0.795028246960 0.112323900552
   RANGE                   = 2009-05-01T02:47:32.588782 6827.123429007058 0.050449469437
   DOPPLER_INSTANTANEOUS   = 2009-05-01T02:47:32.588782 0.792859984873 0.112324972253
   RANGE                   = 2009-05-01T02:47:32.788782 6826.621985125652 0.050446717727
   DOPPLER_INSTANTANEOUS   = 2009-05-01T02:47:32.788782 0.790697240559 0.112326050593
   RANGE                   = 2009-05-01T02:47:32.988783 6826.375830244028 0.050443972773
   DOPPLER_INSTANTANEOUS   = 2009-05-01T02:47:32.988783 0.788503786886 0.112327135579
   RANGE                   = 2009-05-01T02:47:33.188784 6825.934640898252 0.050441234578
   DOPPLER_INSTANTANEOUS   = 2009-05-01T02:47:33.188784 0.786336746817 0.112328227214
   RANGE                   = 2009-05-01T02:47:33.388784 6825.718213162938 0.050438503143
   DOPPLER_INSTANTANEOUS   = 2009-05-01T02:47:33.388784 0.784143204260 0.112329325504
   RANGE                   = 2009-05-01T02:47:33.588785 6825.188922936281 0.050435778470
   DOPPLER_INSTANTANEOUS   = 2009-05-01T02:47:33.588785 0.781969327838 0.112330430454
   RANGE                   = 2009-05-01T02:47:33.788785 6824.952585029529 0.050433060562
   DOPPLER_INSTANTANEOUS   = 2009-05-01T02:47:33.788785 0.779787652666 0.112331542069
   RANGE                   = 2009-05-01T02:47:33.988786 6824.660946870968 0.050430349419
   DOPPLER_INSTANTANEOUS   = 2009-05-01T02:47:33.988786 0.777608757571 0.112332660354
   RANGE                   = 2009-05-01T02:47:34.188787 6824.237191053409 0.050427645045
   DOPPLER_INSTANTANEOUS   = 2009-05-01T02:47:34.188787 0.775420589712 0.112333785314
   RANGE                   = 2009-05-01T02:47:34.388787 6823.884209605314 0.050424947440
   DOPPLER_INSTANTANEOUS   = 2009-05-01T02:47:34.388787 0.773239509672 0.112334916953
   RANGE                   = 2009-05-01T02:47:34.588788 6823.672773051579 0.050422256067
   DOPPLER_INSTANTANEOUS   = 2009-05-01T02:47:34.588788 0.771050815565 0.112336055508
   RANGE                   = 2009-05-01T02:47:34.788789 6823.327959569383 0.050419572009
   DOPPLER_INSTANTANEOUS   = 2009-05-01T02:47:34.788789 0.768871622981 0.112337200524
   RANGE                   = 2009-05-01T02:47:34.988789 6822.962172755495 0.050416894727
   DOPPLER_INSTANTANEOUS   = 2009-05-01T02:47:34.988789 0.766688181041 0.112338352235
   RANGE                   = 2009-05-01T02:47:35.188790 6822.485199018010 0.050414224223
   DOPPLER_INSTANTANEOUS   = 2009-05-01T02:47:35.188790 0.764501764756 0.112339510647
   RANGE                   = 2009-05-01T02:47:35.388790 6822.331812682485 0.050411560497
   DOPPLER_INSTANTANEOUS   = 2009-05-01T02:47:35.388790 0.762316274120 0.112340675764
   RANGE                   = 2009-05-01T02:47:35.588791 6821.964278497920 0.050408903553
   DOPPLER_INSTANTANEOUS   = 2009-05-01T02:47:35.588791 0.760119625258 0.112341847592
   RANGE                   = 2009-05-01T02:47:35.788791 6821.640589876201 0.050406253393
   DOPPLER_INSTANTANEOUS   = 2009-05-01T02:47:35.788791 0.757931556600 0.112343026135
   RANGE                   = 2009-05-01T02:47:35.988792 6821.193653451402 0.050403610017
   DOPPLER_INSTANTANEOUS   = 2009-05-01T02:47:35.988792 0.755761561251 0.112344211400
   RANGE                   = 2009-05-01T02:47:36.188793 6820.947146918104 0.050400973429
   DOPPLER_INSTANTANEOUS   = 2009-05-01T02:47:36.188793 0.753553815713 0.112345403390
   RANGE                   = 2009-05-01T02:47:36.388793 6820.735795816230 0.050398343629
   DOPPLER_INSTANTANEOUS   = 2009-05-01T02:47:36.388793 0.751373476675 0.112346602111
   RANGE                   = 2009-05-01T02:47:36.588794 6820.360530134199 0.050395720620
   DOPPLER_INSTANTANEOUS   = 2009-05-01T02:47:36.588794 0.749188229858 0.112347807569
   RANGE                   = 2009-05-01T02:47:36.788794 6820.046064291218 0.050393104404
   DOPPLER_INSTANTANEOUS   = 2009-05-01T02:47:36.788794 0.746988458410 0.112349019768
   RANGE                   = 2009-05-01T02:47:36.988795 6819.652831597415 0.050390494982
   DOPPLER_INSTANTANEOUS   = 2009-05-01T02:47:36.988795 0.744820843723 0.112350238714
   RANGE                   = 2009-05-01T02:47:37.188796 6819.406092130213 0.050387892356
   DOPPLER_INSTANTANEOUS   = 2009-05-01T02:47:37.188796 0.742608618172 0.112351464412
   RANGE                   = 2009-05-01T02:47:37.388796 6819.114048772908 0.050385296529
   DOPPLER_INSTANTANEOUS   = 2009-05-01T02:47:37.388796 0.740426612779 0.112352696867
   RANGE                   = 2009-05-01T02:47:37.588797 6818.830056349568 0.050382707502
   DOPPLER_INSTANTANEOUS   = 2009-05-01T02:47:37.588797 0.738234558346 0.112353936085
   RANGE                   = 2009-05-01T02:47:37.788797 6818.443548409322 0.050380125278
   DOPPLER_INSTANTANEOUS   = 2009-05-01T02:47:37.788797 0.736043269889 0.112355182069
   RANGE                   = 2009-05-01T02:47:37.988798 6818.171486074652 0.050377549857
   DOPPLER_INSTANTANEOUS   = 2009-05-01T02:47:37.988798 0.735322487040 0.112356434827
   RANGE                   = 2009-05-01T02:47:38.188798 6817.771657915123 0.050374981241
   DOPPLER_INSTANTANEOUS   = 2009-05-01T02:47:38.188798 0.733135514915 0.112357694363
   RANGE                   = 2009-05-01T02:47:38.388799 6817.406002068990 0.050372419434
   DOPPLER_INSTANTANEOUS   = 2009-05-01T02:47:38.388799 0.730936736977 0.112358960682
   RANGE                   = 2009-05-01T02:47:38.588799 6817.176312743981 0.050369864436
   DOPPLER_INSTANTANEOUS   = 2009-05-01T02:47:38.588799 0.728733038079 0.112360233790
   RANGE                   = 2009-05-01T02:47:38.788800 6816.930810954301 0.050367316249
   DOPPLER_INSTANTANEOUS   = 2009-05-01T02:47:38.788800 0.725073473127 0.112361513692
   RANGE                   = 2009-05-01T02:47:38.988801 6816.514635404408 0.050364774875
   DOPPLER_INSTANTANEOUS   = 2009-05-01T02:47:38.988801 0.722870810042 0.112362800393
   RANGE                   = 2009-05-01T02:47:39.188801 6816.144624267452 0.050362240317
