examples/example_data/track-1241145440-1001120300074-0_2.tdm

CCSDS_TDM_VERS = 1.0
   COMMENT MASTER ID 1001120300074.0
   COMMENT TX_ECEF (2116582.848329356872,783500.738468278782,5945469.151553326286)
   COMMENT RX_ECEF (2240531.207530094311,805311.241482983693,5897265.538548513316)
   COMMENT This is a simulated track of MASTER ID 1001120300074.0 with EISCAT 3D
   COMMENT 233 MHz, time of flight, with ionospheric corrections
   COMMENT EISCAT 3D coordinates: 
   COMMENT Author(s): SORTS.
   CREATION_DATE       = 2019-04-11T20:29:23
META_START
   TIME_SYSTEM         = UTC
   START_TIME          = 2009-05-01T02:37:20.582423
   STOP_TIME           = 2009-05-01T02:49:27.388875
   PARTICIPANT_1       = Skibotn TX
   PARTICIPANT_2       = 1001120300074.0
   PARTICIPANT_3       = Kaiseniemi
   MODE                = SEQUENTIAL
   PATH                = 1,2,3
   TRANSMIT_BAND       = 233000000.00000
   RECEIVE_BAND        = 233000000.00000
   TIMETAG_REF         = TRANSMIT
   INTEGRATION_REF     = START
   RANGE_MODE          = CONSTANT
   RANGE_MODULUS       = 2.56
   RANGE_UNITS         = KM
   DATA_QUALITY        = VALIDATED
   CORRECTION_RANGE    = 0.0
   NOISE_DATA          = ON
   CORRECTIONS_APPLIED = NO
META_STOP
DATA_START
   RANGE                   = 2009-05-01T02:37:20.582423 10459.540415445515 0.079055537029
   DOPPLER_INSTANTANEOUS   = 2009-05-01T02:37:20.582423 4.129182371768 0.132783698433
   RANGE                   = 2009-05-01T02:37:20.782425 10457.904118270011 0.079042818454
   DOPPLER_INSTANTANEOUS   = 2009-05-01T02:37:20.782425 4.128903481168 0.132767858318
   RANGE                   = 2009-05-01T02:37:20.982428 10456.127746964508 0.079030100615
   DOPPLER_INSTANTANEOUS   = 2009-05-01T02:37:20.982428 4.128604250184 0.132752025954
   RANGE                   = 2009-05-01T02:37:21.182431 10454.484942506584 0.079017383511
   DOPPLER_INSTANTANEOUS   = 2009-05-01T02:37:21.182431 4.128317693279 0.132736201341
   RANGE                   = 2009-05-01T02:37:21.382434 10452.968265483400 0.079004667143
   DOPPLER_INSTANTANEOUS   = 2009-05-01T02:37:21.382434 4.128003643815 0.132720384474
   RANGE                   = 2009-05-01T02:37:21.582437 10451.098892345064 0.078991951512
   DOPPLER_INSTANTANEOUS   = 2009-05-01T02:37:21.582437 4.127718811023 0.132704575351
   RANGE                   = 2009-05-01T02:37:21.782439 10449.573899300683 0.078979236619
   DOPPLER_INSTANTANEOUS   = 2009-05-01T02:37:21.782439 4.127442625251 0.132688773968
   RANGE                   = 2009-05-01T02:37:21.982442 10447.867303345820 0.078966522465
   DOPPLER_INSTANTANEOUS   = 2009-05-01T02:37:21.982442 4.127182604884 0.132672980324
   RANGE                   = 2009-05-01T02:37:22.182445 10446.308522341793 0.078953809050
   DOPPLER_INSTANTANEOUS   = 2009-05-01T02:37:22.182445 4.126848955409 0.132657194415
   RANGE                   = 2009-05-01T02:37:22.382448 10444.447559367583 0.078941096376
   DOPPLER_INSTANTANEOUS   = 2009-05-01T02:37:22.382448 4.134906384965 0.132641416238
   RANGE                   = 2009-05-01T02:37:22.582451 10442.813194984668 0.078928384443
   DOPPLER_INSTANTANEOUS   = 2009-05-01T02:37:22.582451 4.134605573466 0.132625645791
   RANGE                   = 2009-05-01T02:37:22.782454 10441.169527658090 0.078915673252
   DOPPLER_INSTANTANEOUS   = 2009-05-01T02:37:22.782454 4.134304369994 0.132609883070
   RANGE                   = 2009-05-01T02:37:22.982456 10439.436578491774 0.078902962805
   DOPPLER_INSTANTANEOUS   = 2009-05-01T02:37:22.982456 4.125696915994 0.132594128073
   RANGE                   = 2009-05-01T02:37:23.182459 10437.853297577762 0.078890253101
   DOPPLER_INSTANTANEOUS   = 2009-05-01T02:37:23.182459 4.125458482582 0.132578380797
   RANGE                   = 2009-05-01T02:37:23.382462 10436.136976934873 0.078877544142
   DOPPLER_INSTANTANEOUS   = 2009-05-01T02:37:23.382462 4.125139072955 0.132562641238
   RANGE                   = 2009-05-01T02:37:23.582465 10434.391947660799 0.078864835928
   DOPPLER_INSTANTANEOUS   = 2009-05-01T02:37:23.582465 4.124853252878 0.132546909395
   RANGE                   = 2009-05-01T02:37:23.782468 10432.806991042913 0.078852128461
   DOPPLER_INSTANTANEOUS   = 2009-05-01T02:37:23.782468 4.124563310599 0.132531185264
   RANGE                   = 2009-05-01T02:37:23.982471 10431.007462348851 0.078839421741
   DOPPLER_INSTANTANEOUS   = 2009-05-01T02:37:23.982471 4.124280425000 0.132515468843
   RANGE                   = 2009-05-01T02:37:24.182473 10429.380700225418 0.078826715770
   DOPPLER_INSTANTANEOUS   = 2009-05-01T02:37:24.182473 4.123961107123 0.132499760128
   RANGE                   = 2009-05-01T02:37:24.382476 10427.747359939296 0.078814010547
   DOPPLER_INSTANTANEOUS   = 2009-05-01T02:37:24.382476 4.123648162769 0.132484059117
   RANGE                   = 2009-05-01T02:37:24.582479 10426.261787407777 0.078801306074
   DOPPLER_INSTANTANEOUS   = 2009-05-01T02:37:24.582479 4.123375667456 0.132468365807
   RANGE                   = 2009-05-01T02:37:24.782482 10424.477070924713 0.078788602352
   DOPPLER_INSTANTANEOUS   = 2009-05-01T02:37:24.782482 4.123124634943 0.132452680195
   RANGE                   = 2009-05-01T02:37:24.982485 10422.830337012469 0.078775899381
   DOPPLER_INSTANTANEOUS   = 2009-05-01T02:37:24.982485 4.122798623987 0.132437002278
   RANGE                   = 2009-05-01T02:37:25.182487 10420.988689156758 0.078763197163
   DOPPLER_INSTANTANEOUS   = 2009-05-01T02:37:25.182487 4.122532501335 0.132421332054
   RANGE                   = 2009-05-01T02:37:25.382490 10419.586481920547 0.078750495697
   DOPPLER_INSTANTANEOUS   = 2009-05-01T02:37:25.382490 4.122209259888 0.132405669519
   RANGE                   = 2009-05-01T02:37:25.582493 10417.801826907589 0.078737794986
   DOPPLER_INSTANTANEOUS   = 2009-05-01T02:37:25.582493 4.121913088379 0.132390014670
   RANGE                   = 2009-05-01T02:37:25.782496 10416.038876294946 0.078725095030
   DOPPLER_INSTANTANEOUS   = 2009-05-01T02:37:25.782496 4.121653165402 0.132374367506
   RANGE                   = 2009-05-01T02:37:25.982499 10414.487617540353 0.078712395830
   DOPPLER_INSTANTANEOUS   = 2009-05-01T02:37:25.982499 4.121330915900 0.132358728022
   RANGE                   = 2009-05-01T02:37:26.182502 10412.800865819285 0.078699697386
   DOPPLER_INSTANTANEOUS   = 2009-05-01T02:37:26.182502 4.121048826107 0.132343096217
   RANGE                   = 2009-05-01T02:37:26.382504 10411.082786929561 0.078686997146
   DOPPLER_INSTANTANEOUS   = 2009-05-01T02:37:26.382504 4.120768446238 0.132327468945
   RANGE                   = 2009-05-01T02:37:26.582507 10409.435147519865 0.078674300218
   DOPPLER_INSTANTANEOUS   = 2009-05-01T02:37:26.582507 4.120473840756 0.132311852489
   RANGE                   = 2009-05-01T02:37:26.782510 10407.759712358933 0.078661604050
   DOPPLER_INSTANTANEOUS   = 2009-05-01T02:37:26.782510 4.120157458690 0.132296243703
   RANGE                   = 2009-05-01T02:37:26.982513 10406.183789028257 0.078648908642
   DOPPLER_INSTANTANEOUS   = 2009-05-01T02:37:26.982513 4.119885782378 0.132280642584
   RANGE                   = 2009-05-01T02:37:27.182516 10404.322502071791 0.078636213995
   DOPPLER_INSTANTANEOUS   = 2009-05-01T02:37:27.182516 4.119573036034 0.132265049129
   RANGE                   = 2009-05-01T02:37:27.382519 10402.550541360662 0.078623520109
   DOPPLER_INSTANTANEOUS   = 2009-05-01T02:37:27.382519 4.119296265975 0.132249463335
   RANGE                   = 2009-05-01T02:37:27.582521 10401.116426659311 0.078610826986
   DOPPLER_INSTANTANEOUS   = 2009-05-01T02:37:27.582521 4.118986381244 0.132233885199
   RANGE                   = 2009-05-01T02:37:27.782524 10399.354725666486 0.078598134627
   DOPPLER_INSTANTANEOUS   = 2009-05-01T02:37:27.782524 4.118678679514 0.132218314719
   RANGE                   = 2009-05-01T02:37:27.982527 10397.688652814255 0.078585443032
   DOPPLER_INSTANTANEOUS   = 2009-05-01T02:37:27.982527 4.118383214407 0.132202751892
   RANGE                   = 2009-05-01T02:37:28.182530 10395.971223386263 0.078572752203
   DOPPLER_INSTANTANEOUS   = 2009-05-01T02:37:28.182530 4.118079783559 0.132187196714
   RANGE                   = 2009-05-01T02:37:28.382533 10394.435564426618 0.078560062140
   DOPPLER_INSTANTANEOUS   = 2009-05-01T02:37:28.382533 4.117804512802 0.132171649184
   RANGE                   = 2009-05-01T02:37:28.582536 10392.865688798647 0.078547372843
   DOPPLER_INSTANTANEOUS   = 2009-05-01T02:37:28.582536 4.117491142779 0.132156109298
   RANGE                   = 2009-05-01T02:37:28.782538 10391.073846298019 0.078534684315
   DOPPLER_INSTANTANEOUS   = 2009-05-01T02:37:28.782538 4.117217947750 0.132140577054
   RANGE                   = 2009-05-01T02:37:28.982541 10389.413522049470 0.078521996555
   DOPPLER_INSTANTANEOUS   = 2009-05-01T02:37:28.982541 4.116906925497 0.132125052448
   RANGE                   = 2009-05-01T02:37:29.182544 10387.774483905700 0.078509309565
   DOPPLER_INSTANTANEOUS   = 2009-05-01T02:37:29.182544 4.116592610414 0.132109535478
   RANGE                   = 2009-05-01T02:37:29.382547 10386.038299987769 0.078496623345
   DOPPLER_INSTANTANEOUS   = 2009-05-01T02:37:29.382547 4.116319541243 0.132094026142
   RANGE                   = 2009-05-01T02:37:29.582550 10384.358433379764 0.078483937897
   DOPPLER_INSTANTANEOUS   = 2009-05-01T02:37:29.582550 4.116000003034 0.132078524435
   RANGE                   = 2009-05-01T02:37:29.782552 10382.664908134589 0.078471253221
   DOPPLER_INSTANTANEOUS   = 2009-05-01T02:37:29.782552 4.123997437783 0.132063030356
   RANGE                   = 2009-05-01T02:37:29.982555 10380.957911344651 0.078458569317
   DOPPLER_INSTANTANEOUS   = 2009-05-01T02:37:29.982555 4.123693905977 0.132047543902
   RANGE                   = 2009-05-01T02:37:30.182558 10379.357369264775 0.078445886188
   DOPPLER_INSTANTANEOUS   = 2009-05-01T02:37:30.182558 4.123409969590 0.132032065069
   RANGE                   = 2009-05-01T02:37:30.382561 10377.740194705662 0.078433203834
   DOPPLER_INSTANTANEOUS   = 2009-05-01T02:37:30.382561 4.114809365010 0.132016593856
   RANGE                   = 2009-05-01T02:37:30.582564 10376.098813850642 0.078420522255
   DOPPLER_INSTANTANEOUS   = 2009-05-01T02:37:30.582564 4.114492467524 0.132001130259
   RANGE                   = 2009-05-01T02:37:30.782567 10374.487815347868 0.078407841453
   DOPPLER_INSTANTANEOUS   = 2009-05-01T02:37:30.782567 4.114200917194 0.131985674275
   RANGE                   = 2009-05-01T02:37:30.982569 10372.629818728699 0.078395161429
   DOPPLER_INSTANTANEOUS   = 2009-05-01T02:37:30.982569 4.113880325231 0.131970225902
   RANGE                   = 2009-05-01T02:37:31.182572 10371.068745911740 0.078382482182
   DOPPLER_INSTANTANEOUS   = 2009-05-01T02:37:31.182572 4.113603338225 0.131954785137
   RANGE                   = 2009-05-01T02:37:31.382575 10369.206163322113 0.078369803715
   DOPPLER_INSTANTANEOUS   = 2009-05-01T02:37:31.382575 4.113274654513 0.131939351977
   RANGE                   = 2009-05-01T02:37:31.582578 10367.666755923898 0.078357126028
   DOPPLER_INSTANTANEOUS   = 2009-05-01T02:37:31.582578 4.113020050800 0.131923926419
   RANGE                   = 2009-05-01T02:37:31.782581 10366.022464876896 0.078344449122
   DOPPLER_INSTANTANEOUS   = 2009-05-01T02:37:31.782581 4.112694617117 0.131908508461
   RANGE                   = 2009-05-01T02:37:31.982584 10364.394119268649 0.078331772997
   DOPPLER_INSTANTANEOUS   = 2009-05-01T02:37:31.982584 4.112396896099 0.131893098099
   RANGE                   = 2009-05-01T02:37:32.182586 10362.831368213570 0.078319097656
   DOPPLER_INSTANTANEOUS   = 2009-05-01T02:37:32.182586 4.112087357132 0.131877695332
   RANGE                   = 2009-05-01T02:37:32.382589 10361.033726519243 0.078306423098
   DOPPLER_INSTANTANEOUS   = 2009-05-01T02:37:32.382589 4.111760536082 0.131862300155
   RANGE                   = 2009-05-01T02:37:32.582592 10359.341012333338 0.078293749324
   DOPPLER_INSTANTANEOUS   = 2009-05-01T02:37:32.582592 4.111476499988 0.131846912567
   RANGE                   = 2009-05-01T02:37:32.782595 10357.816458779478 0.078281076335
   DOPPLER_INSTANTANEOUS   = 2009-05-01T02:37:32.782595 4.111173464465 0.131831532565
   RANGE                   = 2009-05-01T02:37:32.982598 10356.080823078832 0.078268404133
   DOPPLER_INSTANTANEOUS   = 2009-05-01T02:37:32.982598 4.110858188144 0.131816160145
   RANGE                   = 2009-05-01T02:37:33.182600 10354.381407301547 0.078255732718
   DOPPLER_INSTANTANEOUS   = 2009-05-01T02:37:33.182600 4.110565018082 0.131800795305
   RANGE                   = 2009-05-01T02:37:33.382603 10352.674918321267 0.078243062091
   DOPPLER_INSTANTANEOUS   = 2009-05-01T02:37:33.382603 4.110247353963 0.131785438043
   RANGE                   = 2009-05-01T02:37:33.582606 10350.925150988051 0.078230392252
   DOPPLER_INSTANTANEOUS   = 2009-05-01T02:37:33.582606 4.109950581406 0.131770088355
   RANGE                   = 2009-05-01T02:37:33.782609 10349.309524043976 0.078217720655
   DOPPLER_INSTANTANEOUS   = 2009-05-01T02:37:33.782609 4.109613449323 0.131754743153
   RANGE                   = 2009-05-01T02:37:33.982612 10347.780772403199 0.078205052397
   DOPPLER_INSTANTANEOUS   = 2009-05-01T02:37:33.982612 4.109337649851 0.131739408607
   RANGE                   = 2009-05-01T02:37:34.182614 10346.035228047578 0.078192384930
   DOPPLER_INSTANTANEOUS   = 2009-05-01T02:37:34.182614 4.109035093337 0.131724081628
   RANGE                   = 2009-05-01T02:37:34.382617 10344.185230628980 0.078179718256
   DOPPLER_INSTANTANEOUS   = 2009-05-01T02:37:34.382617 4.108710506126 0.131708762212
   RANGE                   = 2009-05-01T02:37:34.582620 10342.597966834595 0.078167052375
   DOPPLER_INSTANTANEOUS   = 2009-05-01T02:37:34.582620 4.108416659280 0.131693450356
   RANGE                   = 2009-05-01T02:37:34.782623 10340.980060645146 0.078154387288
   DOPPLER_INSTANTANEOUS   = 2009-05-01T02:37:34.782623 4.108145333466 0.131678146058
   RANGE                   = 2009-05-01T02:37:34.982626 10339.282704642619 0.078141722996
   DOPPLER_INSTANTANEOUS   = 2009-05-01T02:37:34.982626 4.107791920269 0.131662849316
   RANGE                   = 2009-05-01T02:37:35.182628 10337.669832257752 0.078129059500
   DOPPLER_INSTANTANEOUS   = 2009-05-01T02:37:35.182628 4.107515364360 0.131647560125
   RANGE                   = 2009-05-01T02:37:35.382631 10336.068956109337 0.078116396801
   DOPPLER_INSTANTANEOUS   = 2009-05-01T02:37:35.382631 4.107181946396 0.131632278485
   RANGE                   = 2009-05-01T02:37:35.582634 10334.321319345458 0.078103734899
   DOPPLER_INSTANTANEOUS   = 2009-05-01T02:37:35.582634 4.106858019881 0.131617004391
   RANGE                   = 2009-05-01T02:37:35.782637 10332.696627520494 0.078091073796
   DOPPLER_INSTANTANEOUS   = 2009-05-01T02:37:35.782637 4.106555118326 0.131601737841
   RANGE                   = 2009-05-01T02:37:35.982640 10330.951191349872 0.078078413493
   DOPPLER_INSTANTANEOUS   = 2009-05-01T02:37:35.982640 4.106251994244 0.131586478833
   RANGE                   = 2009-05-01T02:37:36.182642 10329.468861112086 0.078065753989
   DOPPLER_INSTANTANEOUS   = 2009-05-01T02:37:36.182642 4.105938759902 0.131571227363
   RANGE                   = 2009-05-01T02:37:36.382645 10327.639193023064 0.078053095287
   DOPPLER_INSTANTANEOUS   = 2009-05-01T02:37:36.382645 4.105634730623 0.131555983429
   RANGE                   = 2009-05-01T02:37:36.582648 10325.999688329210 0.078040437387
   DOPPLER_INSTANTANEOUS   = 2009-05-01T02:37:36.582648 4.105389034854 0.131540747028
   RANGE                   = 2009-05-01T02:37:36.782651 10324.507274458401 0.078027780290
   DOPPLER_INSTANTANEOUS   = 2009-05-01T02:37:36.782651 4.105014167205 0.131525518157
   RANGE                   = 2009-05-01T02:37:36.982654 10322.837237165717 0.078015123997
   DOPPLER_INSTANTANEOUS   = 2009-05-01T02:37:36.982654 4.104687461019 0.131510296814
   RANGE                   = 2009-05-01T02:37:37.182657 10321.006371360032 0.078002468508
   DOPPLER_INSTANTANEOUS   = 2009-05-01T02:37:37.182657 4.112680629586 0.131495082995
   RANGE                   = 2009-05-01T02:37:37.382659 10319.410290600796 0.077989813825
   DOPPLER_INSTANTANEOUS   = 2009-05-01T02:37:37.382659 4.112389832289 0.131479876699
   RANGE                   = 2009-05-01T02:37:37.582662 10317.794901073978 0.077977159949
   DOPPLER_INSTANTANEOUS   = 2009-05-01T02:37:37.582662 4.112039354591 0.131464677922
   RANGE                   = 2009-05-01T02:37:37.782665 10316.203601350084 0.077964506880
   DOPPLER_INSTANTANEOUS   = 2009-05-01T02:37:37.782665 4.103468793257 0.131449486661
   RANGE                   = 2009-05-01T02:37:37.982668 10314.220011753578 0.077951854620
   DOPPLER_INSTANTANEOUS   = 2009-05-01T02:37:37.982668 4.103161180010 0.131434302915
   RANGE                   = 2009-05-01T02:37:38.182671 10312.820679970644 0.077939203168
   DOPPLER_INSTANTANEOUS   = 2009-05-01T02:37:38.182671 4.102828607807 0.131419126679
   RANGE                   = 2009-05-01T02:37:38.382674 10311.018602167194 0.077926552527
   DOPPLER_INSTANTANEOUS   = 2009-05-01T02:37:38.382674 4.102509931182 0.131403957952
   RANGE                   = 2009-05-01T02:37:38.582676 10309.509746581540 0.077913902697
   DOPPLER_INSTANTANEOUS   = 2009-05-01T02:37:38.582676 4.102226198998 0.131388796731
   RANGE                   = 2009-05-01T02:37:38.782679 10307.713612241825 0.077901253679
   DOPPLER_INSTANTANEOUS   = 2009-05-01T02:37:38.782679 4.101913123176 0.131373643012
   RANGE                   = 2009-05-01T02:37:38.982682 10306.206947055654 0.077888605473
   DOPPLER_INSTANTANEOUS   = 2009-05-01T02:37:38.982682 4.101609956406 0.131358496794
   RANGE                   = 2009-05-01T02:37:39.182685 10304.353584341749 0.077875958081
   DOPPLER_INSTANTANEOUS   = 2009-05-01T02:37:39.182685 4.101262801649 0.131343358073
   RANGE                   = 2009-05-01T02:37:39.382688 10302.745502108941 0.077863311504
   DOPPLER_INSTANTANEOUS   = 2009-05-01T02:37:39.382688 4.100951103732 0.131328226847
   RANGE                   = 2009-05-01T02:37:39.582690 10300.966453294430 0.077850665742
   DOPPLER_INSTANTANEOUS   = 2009-05-01T02:37:39.582690 4.100655822614 0.131313103112
   RANGE                   = 2009-05-01T02:37:39.782693 10299.438969637113 0.077838020797
   DOPPLER_INSTANTANEOUS   = 2009-05-01T02:37:39.782693 4.100327719683 0.131297986867
   RANGE                   = 2009-05-01T02:37:39.982696 10297.708872000605 0.077825376669
   DOPPLER_INSTANTANEOUS   = 2009-05-01T02:37:39.982696 4.100017123211 0.131282878109
   RANGE                   = 2009-05-01T02:37:40.182699 10296.135492024358 0.077812733359
   DOPPLER_INSTANTANEOUS   = 2009-05-01T02:37:40.182699 4.099683839299 0.131267776834
   RANGE                   = 2009-05-01T02:37:40.382702 10294.469211224041 0.077800090868
   DOPPLER_INSTANTANEOUS   = 2009-05-01T02:37:40.382702 4.099412224417 0.131252683041
   RANGE                   = 2009-05-01T02:37:40.582704 10292.732652890998 0.077787449197
   DOPPLER_INSTANTANEOUS   = 2009-05-01T02:37:40.582704 4.099052461526 0.131237596725
   RANGE                   = 2009-05-01T02:37:40.782707 10291.203238714732 0.077774808347
   DOPPLER_INSTANTANEOUS   = 2009-05-01T02:37:40.782707 4.098754631472 0.131222517886
   RANGE                   = 2009-05-01T02:37:40.982710 10289.537053173133 0.077762168319
   DOPPLER_INSTANTANEOUS   = 2009-05-01T02:37:40.982710 4.098419607047 0.131207446519
   RANGE                   = 2009-05-01T02:37:41.182713 10287.930535947720 0.077749526571
   DOPPLER_INSTANTANEOUS   = 2009-05-01T02:37:41.182713 4.098110617772 0.131192379593
   RANGE                   = 2009-05-01T02:37:41.382716 10286.031230604640 0.077736888189
   DOPPLER_INSTANTANEOUS   = 2009-05-01T02:37:41.382716 4.097782526509 0.131177323166
   RANGE                   = 2009-05-01T02:37:41.582718 10284.558519626047 0.077724250632
   DOPPLER_INSTANTANEOUS   = 2009-05-01T02:37:41.582718 4.097477074943 0.131162274203
   RANGE                   = 2009-05-01T02:37:41.782721 10282.931155111470 0.077711613900
   DOPPLER_INSTANTANEOUS   = 2009-05-01T02:37:41.782721 4.097162236147 0.131147232702
   RANGE                   = 2009-05-01T02:37:41.982724 10281.142857661769 0.077698977995
   DOPPLER_INSTANTANEOUS   = 2009-05-01T02:37:41.982724 4.096826501235 0.131132198661
   RANGE                   = 2009-05-01T02:37:42.182727 10279.456178185501 0.077686342917
   DOPPLER_INSTANTANEOUS   = 2009-05-01T02:37:42.182727 4.096519145822 0.131117172077
   RANGE                   = 2009-05-01T02:37:42.382730 10277.769409137187 0.077673708666
   DOPPLER_INSTANTANEOUS   = 2009-05-01T02:37:42.382730 4.096160837607 0.131102152946
   RANGE                   = 2009-05-01T02:37:42.582732 10276.235905481462 0.077661075245
   DOPPLER_INSTANTANEOUS   = 2009-05-01T02:37:42.582732 4.095891067517 0.131087141267
   RANGE                   = 2009-05-01T02:37:42.782735 10274.523446872761 0.077648442654
   DOPPLER_INSTANTANEOUS   = 2009-05-01T02:37:42.782735 4.095580598212 0.131072137036
   RANGE                   = 2009-05-01T02:37:42.982738 10273.017549041850 0.077635810894
   DOPPLER_INSTANTANEOUS   = 2009-05-01T02:37:42.982738 4.095230574247 0.131057140251
   RANGE                   = 2009-05-01T02:37:43.182741 10271.170460351839 0.077623179965
   DOPPLER_INSTANTANEOUS   = 2009-05-01T02:37:43.182741 4.094915946050 0.131042150909
   RANGE                   = 2009-05-01T02:37:43.382744 10269.468263218914 0.077610549869
   DOPPLER_INSTANTANEOUS   = 2009-05-01T02:37:43.382744 4.094623054399 0.131027169008
   RANGE                   = 2009-05-01T02:37:43.582747 10267.879626674065 0.077597920607
   DOPPLER_INSTANTANEOUS   = 2009-05-01T02:37:43.582747 4.094278046056 0.131012194544
   RANGE                   = 2009-05-01T02:37:43.782749 10266.166604435944 0.077585292179
   DOPPLER_INSTANTANEOUS   = 2009-05-01T02:37:43.782749 4.093941342012 0.130997227516
   RANGE                   = 2009-05-01T02:37:43.982752 10264.533462396883 0.077572664586
   DOPPLER_INSTANTANEOUS   = 2009-05-01T02:37:43.982752 4.093625672666 0.130982267919
   RANGE                   = 2009-05-01T02:37:44.182755 10263.042643350380 0.077560037830
   DOPPLER_INSTANTANEOUS   = 2009-05-01T02:37:44.182755 4.093306511593 0.130967315753
   RANGE                   = 2009-05-01T02:37:44.382758 10261.274424817871 0.077547411911
   DOPPLER_INSTANTANEOUS   = 2009-05-01T02:37:44.382758 4.092994104071 0.130952371013
   RANGE                   = 2009-05-01T02:37:44.582761 10259.527181219606 0.077534786830
   DOPPLER_INSTANTANEOUS   = 2009-05-01T02:37:44.582761 4.100899886651 0.130937433698
   RANGE                   = 2009-05-01T02:37:44.782763 10257.934731765305 0.077522162588
   DOPPLER_INSTANTANEOUS   = 2009-05-01T02:37:44.782763 4.100584316056 0.130922503805
   RANGE                   = 2009-05-01T02:37:44.982766 10256.264913351957 0.077509539186
   DOPPLER_INSTANTANEOUS   = 2009-05-01T02:37:44.982766 4.100260631719 0.130907581330
   RANGE                   = 2009-05-01T02:37:45.182769 10254.642357334144 0.077496916625
   DOPPLER_INSTANTANEOUS   = 2009-05-01T02:37:45.182769 4.099947185005 0.130892666271
   RANGE                   = 2009-05-01T02:37:45.382772 10252.947799698681 0.077484294906
   DOPPLER_INSTANTANEOUS   = 2009-05-01T02:37:45.382772 4.091332928268 0.130877758626
   RANGE                   = 2009-05-01T02:37:45.582775 10251.305990089855 0.077471674029
   DOPPLER_INSTANTANEOUS   = 2009-05-01T02:37:45.582775 4.091037729574 0.130862858392
   RANGE                   = 2009-05-01T02:37:45.782777 10249.563056711057 0.077459053996
   DOPPLER_INSTANTANEOUS   = 2009-05-01T02:37:45.782777 4.090702469619 0.130847965567
   RANGE                   = 2009-05-01T02:37:45.982780 10247.958961618411 0.077446434808
   DOPPLER_INSTANTANEOUS   = 2009-05-01T02:37:45.982780 4.090400558565 0.130833080146
   RANGE                   = 2009-05-01T02:37:46.182783 10246.240959425522 0.077433816465
   DOPPLER_INSTANTANEOUS   = 2009-05-01T02:37:46.182783 4.090058845903 0.130818202129
   RANGE                   = 2009-05-01T02:37:46.382786 10244.521932247892 0.077421198968
   DOPPLER_INSTANTANEOUS   = 2009-05-01T02:37:46.382786 4.089719157539 0.130803331511
   RANGE                   = 2009-05-01T02:37:46.582789 10242.935803822687 0.077408582319
   DOPPLER_INSTANTANEOUS   = 2009-05-01T02:37:46.582789 4.089434631791 0.130788468292
   RANGE                   = 2009-05-01T02:37:46.782791 10241.347732378732 0.077395966518
   DOPPLER_INSTANTANEOUS   = 2009-05-01T02:37:46.782791 4.089082728396 0.130773612466
   RANGE                   = 2009-05-01T02:37:46.982794 10239.481339851951 0.077383351566
   DOPPLER_INSTANTANEOUS   = 2009-05-01T02:37:46.982794 4.088751945125 0.130758764034
   RANGE                   = 2009-05-01T02:37:47.182797 10238.036244871495 0.077370737464
   DOPPLER_INSTANTANEOUS   = 2009-05-01T02:37:47.182797 4.088406572189 0.130743922990
   RANGE                   = 2009-05-01T02:37:47.382800 10236.220648822575 0.077358124213
   DOPPLER_INSTANTANEOUS   = 2009-05-01T02:37:47.382800 4.088094731990 0.130729089334
   RANGE                   = 2009-05-01T02:37:47.582803 10234.534636157296 0.077345511814
   DOPPLER_INSTANTANEOUS   = 2009-05-01T02:37:47.582803 4.087755919008 0.130714263061
   RANGE                   = 2009-05-01T02:37:47.782805 10233.002209518430 0.077332900268
   DOPPLER_INSTANTANEOUS   = 2009-05-01T02:37:47.782805 4.087438199593 0.130699444170
   RANGE                   = 2009-05-01T02:37:47.982808 10231.418994073041 0.077320289576
   DOPPLER_INSTANTANEOUS   = 2009-05-01T02:37:47.982808 4.087107671325 0.130684632658
   RANGE                   = 2009-05-01T02:37:48.182811 10229.704353976394 0.077307679738
   DOPPLER_INSTANTANEOUS   = 2009-05-01T02:37:48.182811 4.086798033649 0.130669828522
   RANGE                   = 2009-05-01T02:37:48.382814 10228.051923505462 0.077295070756
   DOPPLER_INSTANTANEOUS   = 2009-05-01T02:37:48.382814 4.086462268304 0.130655031759
   RANGE                   = 2009-05-01T02:37:48.582817 10226.466116286436 0.077282460094
   DOPPLER_INSTANTANEOUS   = 2009-05-01T02:37:48.582817 4.086129974183 0.130640239393
   RANGE                   = 2009-05-01T02:37:48.782820 10224.749609083343 0.077269852826
   DOPPLER_INSTANTANEOUS   = 2009-05-01T02:37:48.782820 4.085793086488 0.130625457371
   RANGE                   = 2009-05-01T02:37:48.982822 10222.970943265173 0.077257246416
   DOPPLER_INSTANTANEOUS   = 2009-05-01T02:37:48.982822 4.085480876837 0.130610682715
   RANGE                   = 2009-05-01T02:37:49.182825 10221.486337153774 0.077244640866
   DOPPLER_INSTANTANEOUS   = 2009-05-01T02:37:49.182825 4.085115880756 0.130595915421
   RANGE                   = 2009-05-01T02:37:49.382828 10219.882627397808 0.077232036175
   DOPPLER_INSTANTANEOUS   = 2009-05-01T02:37:49.382828 4.084809438528 0.130581155488
   RANGE                   = 2009-05-01T02:37:49.582831 10218.055199659077 0.077219432346
   DOPPLER_INSTANTANEOUS   = 2009-05-01T02:37:49.582831 4.084485258414 0.130566402912
   RANGE                   = 2009-05-01T02:37:49.782833 10216.410602090304 0.077206829379
   DOPPLER_INSTANTANEOUS   = 2009-05-01T02:37:49.782833 4.084143209789 0.130551657691
   RANGE                   = 2009-05-01T02:37:49.982836 10214.700233083191 0.077194227275
   DOPPLER_INSTANTANEOUS   = 2009-05-01T02:37:49.982836 4.083811509201 0.130536919822
   RANGE                   = 2009-05-01T02:37:50.182839 10213.166886910754 0.077181626035
   DOPPLER_INSTANTANEOUS   = 2009-05-01T02:37:50.182839 4.083464475363 0.130522189303
   RANGE                   = 2009-05-01T02:37:50.382842 10211.497339583691 0.077169025660
   DOPPLER_INSTANTANEOUS   = 2009-05-01T02:37:50.382842 4.083135387378 0.130507466131
   RANGE                   = 2009-05-01T02:37:50.582845 10209.873093737529 0.077156426151
   DOPPLER_INSTANTANEOUS   = 2009-05-01T02:37:50.582845 4.082835473625 0.130492750303
   RANGE                   = 2009-05-01T02:37:50.782847 10208.227379052163 0.077143827508
   DOPPLER_INSTANTANEOUS   = 2009-05-01T02:37:50.782847 4.082475821815 0.130478041817
   RANGE                   = 2009-05-01T02:37:50.982850 10206.580717343699 0.077131229734
   DOPPLER_INSTANTANEOUS   = 2009-05-01T02:37:50.982850 4.082119986704 0.130463340670
   RANGE                   = 2009-05-01T02:37:51.182853 10204.950968666375 0.077118632827
   DOPPLER_INSTANTANEOUS   = 2009-05-01T02:37:51.182853 4.081776391913 0.130448646859
   RANGE                   = 2009-05-01T02:37:51.382856 10203.109130859686 0.077106036790
   DOPPLER_INSTANTANEOUS   = 2009-05-01T02:37:51.382856 4.081462933735 0.130433960382
   RANGE                   = 2009-05-01T02:37:51.582859 10201.674855765063 0.077093441624
   DOPPLER_INSTANTANEOUS   = 2009-05-01T02:37:51.582859 4.081153600497 0.130419281236
   RANGE                   = 2009-05-01T02:37:51.782861 10199.899740263798 0.077080847329
   DOPPLER_INSTANTANEOUS   = 2009-05-01T02:37:51.782861 4.080815058164 0.130404609419
   RANGE                   = 2009-05-01T02:37:51.982864 10198.297607567229 0.077068253907
   DOPPLER_INSTANTANEOUS   = 2009-05-01T02:37:51.982864 4.088685334956 0.130389944928
   RANGE                   = 2009-05-01T02:37:52.182867 10196.532164502805 0.077055661358
   DOPPLER_INSTANTANEOUS   = 2009-05-01T02:37:52.182867 4.088340157739 0.130375287759
   RANGE                   = 2009-05-01T02:37:52.382870 10194.985885790973 0.077043069683
   DOPPLER_INSTANTANEOUS   = 2009-05-01T02:37:52.382870 4.088004266757 0.130360637912
   RANGE                   = 2009-05-01T02:37:52.582873 10193.419486946790 0.077030478883
   DOPPLER_INSTANTANEOUS   = 2009-05-01T02:37:52.582873 4.087676920133 0.130345995382
   RANGE                   = 2009-05-01T02:37:52.782876 10191.688711764797 0.077017888959
   DOPPLER_INSTANTANEOUS   = 2009-05-01T02:37:52.782876 4.079120038512 0.130331360168
   RANGE                   = 2009-05-01T02:37:52.982878 10189.966846686300 0.077005299912
   DOPPLER_INSTANTANEOUS   = 2009-05-01T02:37:52.982878 4.078799991573 0.130316732267
   RANGE                   = 2009-05-01T02:37:53.182881 10188.265840584123 0.076992711743
   DOPPLER_INSTANTANEOUS   = 2009-05-01T02:37:53.182881 4.078463204004 0.130302111675
   RANGE                   = 2009-05-01T02:37:53.382884 10186.696888552673 0.076980124454
   DOPPLER_INSTANTANEOUS   = 2009-05-01T02:37:53.382884 4.078116513896 0.130287498391
   RANGE                   = 2009-05-01T02:37:53.582887 10185.105477222532 0.076967538044
   DOPPLER_INSTANTANEOUS   = 2009-05-01T02:37:53.582887 4.077772261976 0.130272892412
   RANGE                   = 2009-05-01T02:37:53.782889 10183.326771339111 0.076954952514
   DOPPLER_INSTANTANEOUS   = 2009-05-01T02:37:53.782889 4.077434841004 0.130258293735
   RANGE                   = 2009-05-01T02:37:53.982892 10181.692392208071 0.076942367867
   DOPPLER_INSTANTANEOUS   = 2009-05-01T02:37:53.982892 4.077100789003 0.130243702358
   RANGE                   = 2009-05-01T02:37:54.182895 10180.186255471377 0.076929784102
   DOPPLER_INSTANTANEOUS   = 2009-05-01T02:37:54.182895 4.076756126045 0.130229118278
   RANGE                   = 2009-05-01T02:37:54.382898 10178.381684977381 0.076917201221
   DOPPLER_INSTANTANEOUS   = 2009-05-01T02:37:54.382898 4.076398752860 0.130214541492
   RANGE                   = 2009-05-01T02:37:54.582901 10176.727089813261 0.076904619224
   DOPPLER_INSTANTANEOUS   = 2009-05-01T02:37:54.582901 4.076084261497 0.130199971998
   RANGE                   = 2009-05-01T02:37:54.782903 10175.101805782244 0.076892038113
   DOPPLER_INSTANTANEOUS   = 2009-05-01T02:37:54.782903 4.075731930437 0.130185409793
   RANGE                   = 2009-05-01T02:37:54.982906 10173.504831540387 0.076879457889
   DOPPLER_INSTANTANEOUS   = 2009-05-01T02:37:54.982906 4.075382389757 0.130170854874
   RANGE                   = 2009-05-01T02:37:55.182909 10171.808071769352 0.076866878552
   DOPPLER_INSTANTANEOUS   = 2009-05-01T02:37:55.182909 4.075045200222 0.130156307240
   RANGE                   = 2009-05-01T02:37:55.382912 10170.096003280180 0.076854300103
   DOPPLER_INSTANTANEOUS   = 2009-05-01T02:37:55.382912 4.074714520332 0.130141766887
   RANGE                   = 2009-05-01T02:37:55.582915 10168.348918457918 0.076841722543
   DOPPLER_INSTANTANEOUS   = 2009-05-01T02:37:55.582915 4.074407110962 0.130127233813
   RANGE                   = 2009-05-01T02:37:55.782917 10166.827704747016 0.076829145874
   DOPPLER_INSTANTANEOUS   = 2009-05-01T02:37:55.782917 4.074051842181 0.130112708014
   RANGE                   = 2009-05-01T02:37:55.982920 10165.289794387952 0.076816567566
   DOPPLER_INSTANTANEOUS   = 2009-05-01T02:37:55.982920 4.073683934070 0.130098186570
   RANGE                   = 2009-05-01T02:37:56.182923 10163.334711145957 0.076803992680
   DOPPLER_INSTANTANEOUS   = 2009-05-01T02:37:56.182923 4.073340776327 0.130083675317
   RANGE                   = 2009-05-01T02:37:56.382926 10161.863279117781 0.076791418688
   DOPPLER_INSTANTANEOUS   = 2009-05-01T02:37:56.382926 4.073021582938 0.130069171333
   RANGE                   = 2009-05-01T02:37:56.582929 10160.146111960417 0.076778845589
   DOPPLER_INSTANTANEOUS   = 2009-05-01T02:37:56.582929 4.072660202626 0.130054674615
   RANGE                   = 2009-05-01T02:37:56.782931 10158.684525492796 0.076766273385
   DOPPLER_INSTANTANEOUS   = 2009-05-01T02:37:56.782931 4.072304667106 0.130040185160
   RANGE                   = 2009-05-01T02:37:56.982934 10156.853614482701 0.076753702078
   DOPPLER_INSTANTANEOUS   = 2009-05-01T02:37:56.982934 4.071964037877 0.130025702965
   RANGE                   = 2009-05-01T02:37:57.182937 10155.233416289988 0.076741131667
   DOPPLER_INSTANTANEOUS   = 2009-05-01T02:37:57.182937 4.071642697078 0.130011228028
   RANGE                   = 2009-05-01T02:37:57.382940 10153.490373780809 0.076728562154
   DOPPLER_INSTANTANEOUS   = 2009-05-01T02:37:57.382940 4.071284713112 0.129996760347
   RANGE                   = 2009-05-01T02:37:57.582942 10152.038926024548 0.076715993540
   DOPPLER_INSTANTANEOUS   = 2009-05-01T02:37:57.582942 4.070922442831 0.129982299918
   RANGE                   = 2009-05-01T02:37:57.782945 10150.283220952067 0.076703425826
   DOPPLER_INSTANTANEOUS   = 2009-05-01T02:37:57.782945 4.070595982861 0.129967846739
   RANGE                   = 2009-05-01T02:37:57.982948 10148.746410355896 0.076690859012
   DOPPLER_INSTANTANEOUS   = 2009-05-01T02:37:57.982948 4.070279840444 0.129953400808
   RANGE                   = 2009-05-01T02:37:58.182951 10146.898271923856 0.076678293100
   DOPPLER_INSTANTANEOUS   = 2009-05-01T02:37:58.182951 4.069924403892 0.129938962122
   RANGE                   = 2009-05-01T02:37:58.382954 10145.404123014270 0.076665728091
   DOPPLER_INSTANTANEOUS   = 2009-05-01T02:37:58.382954 4.069564253189 0.129924530679
   RANGE                   = 2009-05-01T02:37:58.582957 10143.775283286364 0.076653163985
   DOPPLER_INSTANTANEOUS   = 2009-05-01T02:37:58.582957 4.069236074124 0.129910106475
   RANGE                   = 2009-05-01T02:37:58.782959 10142.058175811897 0.076640600784
   DOPPLER_INSTANTANEOUS   = 2009-05-01T02:37:58.782959 4.068857209374 0.129895689508
   RANGE                   = 2009-05-01T02:37:58.982962 10140.374506158430 0.076628038489
   DOPPLER_INSTANTANEOUS   = 2009-05-01T02:37:58.982962 4.068513728952 0.129881279776
   RANGE                   = 2009-05-01T02:37:59.182965 10138.801125229296 0.076615477100
   DOPPLER_INSTANTANEOUS   = 2009-05-01T02:37:59.182965 4.068165370532 0.129866877277
   RANGE                   = 2009-05-01T02:37:59.382968 10137.073292190649 0.076602916618
   DOPPLER_INSTANTANEOUS   = 2009-05-01T02:37:59.382968 4.075990426353 0.129852482006
   RANGE                   = 2009-05-01T02:37:59.582970 10135.459266742297 0.076590357044
   DOPPLER_INSTANTANEOUS   = 2009-05-01T02:37:59.582970 4.075654930174 0.129838093963
   RANGE                   = 2009-05-01T02:37:59.782973 10133.766929613070 0.076577798380
   DOPPLER_INSTANTANEOUS   = 2009-05-01T02:37:59.782973 4.075288978825 0.129823713143
   RANGE                   = 2009-05-01T02:37:59.982976 10132.056876671613 0.076565240627
   DOPPLER_INSTANTANEOUS   = 2009-05-01T02:37:59.982976 4.074940811104 0.129809339546
   RANGE                   = 2009-05-01T02:38:00.182979 10130.343164641847 0.076552683784
   DOPPLER_INSTANTANEOUS   = 2009-05-01T02:38:00.182979 4.066415763004 0.129794973168
   RANGE                   = 2009-05-01T02:38:00.382982 10128.880062607082 0.076540127854
   DOPPLER_INSTANTANEOUS   = 2009-05-01T02:38:00.382982 4.066084385561 0.129780614006
   RANGE                   = 2009-05-01T02:38:00.582984 10127.187883265951 0.076527572837
   DOPPLER_INSTANTANEOUS   = 2009-05-01T02:38:00.582984 4.065734804056 0.129766262059
   RANGE                   = 2009-05-01T02:38:00.782987 10125.517194422539 0.076515018734
   DOPPLER_INSTANTANEOUS   = 2009-05-01T02:38:00.782987 4.065369942967 0.129751917323
   RANGE                   = 2009-05-01T02:38:00.982990 10123.848662114084 0.076502465547
   DOPPLER_INSTANTANEOUS   = 2009-05-01T02:38:00.982990 4.065020506517 0.129737579795
   RANGE                   = 2009-05-01T02:38:01.182993 10122.084525271517 0.076489913275
   DOPPLER_INSTANTANEOUS   = 2009-05-01T02:38:01.182993 4.064668426434 0.129723249475
   RANGE                   = 2009-05-01T02:38:01.382996 10120.542112876574 0.076477361921
   DOPPLER_INSTANTANEOUS   = 2009-05-01T02:38:01.382996 4.064311409755 0.129708926358
   RANGE                   = 2009-05-01T02:38:01.582998 10118.893683960026 0.076464811484
   DOPPLER_INSTANTANEOUS   = 2009-05-01T02:38:01.582998 4.063966877480 0.129694610442
   RANGE                   = 2009-05-01T02:38:01.783001 10117.257039965078 0.076452261967
   DOPPLER_INSTANTANEOUS   = 2009-05-01T02:38:01.783001 4.063624037366 0.129680301725
   RANGE                   = 2009-05-01T02:38:01.983004 10115.658455579667 0.076439713369
   DOPPLER_INSTANTANEOUS   = 2009-05-01T02:38:01.983004 4.063284285249 0.129666000204
   RANGE                   = 2009-05-01T02:38:02.183007 10114.067637036855 0.076427165693
   DOPPLER_INSTANTANEOUS   = 2009-05-01T02:38:02.183007 4.062922590289 0.129651705876
   RANGE                   = 2009-05-01T02:38:02.383009 10112.336886224064 0.076414618938
   DOPPLER_INSTANTANEOUS   = 2009-05-01T02:38:02.383009 4.062555488139 0.129637418740
   RANGE                   = 2009-05-01T02:38:02.583012 10110.743519508371 0.076402073106
   DOPPLER_INSTANTANEOUS   = 2009-05-01T02:38:02.583012 4.062208688999 0.129623138791
   RANGE                   = 2009-05-01T02:38:02.783015 10109.062673351220 0.076389528198
   DOPPLER_INSTANTANEOUS   = 2009-05-01T02:38:02.783015 4.061857264876 0.129608866029
   RANGE                   = 2009-05-01T02:38:02.983018 10107.306107183495 0.076376984215
   DOPPLER_INSTANTANEOUS   = 2009-05-01T02:38:02.983018 4.061475811385 0.129594600450
   RANGE                   = 2009-05-01T02:38:03.183021 10105.828841132781 0.076364441158
   DOPPLER_INSTANTANEOUS   = 2009-05-01T02:38:03.183021 4.061147116343 0.129580342052
   RANGE                   = 2009-05-01T02:38:03.383024 10104.096764110402 0.076351896504
   DOPPLER_INSTANTANEOUS   = 2009-05-01T02:38:03.383024 4.060798379878 0.129566087966
   RANGE                   = 2009-05-01T02:38:03.583026 10102.434369931734 0.076339355301
   DOPPLER_INSTANTANEOUS   = 2009-05-01T02:38:03.583026 4.060412377556 0.129551843923
   RANGE                   = 2009-05-01T02:38:03.783029 10100.679881469025 0.076326815027
   DOPPLER_INSTANTANEOUS   = 2009-05-01T02:38:03.783029 4.060061256226 0.129537607054
   RANGE                   = 2009-05-01T02:47:15.788725 6797.700003978985 0.050704355726
   DOPPLER_INSTANTANEOUS   = 2009-05-01T02:47:15.788725 0.827908999667 0.111840694234
   RANGE                   = 2009-05-01T02:47:15.988726 6797.306867120526 0.050701043627
   DOPPLER_INSTANTANEOUS   = 2009-05-01T02:47:15.988726 0.825698622124 0.111841377316
   RANGE                   = 2009-05-01T02:47:16.188727 6796.923092217050 0.050697738114
   DOPPLER_INSTANTANEOUS   = 2009-05-01T02:47:16.188727 0.823508139810 0.111842066592
   RANGE                   = 2009-05-01T02:47:16.388727 6796.545606794659 0.050694439190
   DOPPLER_INSTANTANEOUS   = 2009-05-01T02:47:16.388727 0.819654127143 0.111842762066
   RANGE                   = 2009-05-01T02:47:16.588728 6796.145944526630 0.050691146856
   DOPPLER_INSTANTANEOUS   = 2009-05-01T02:47:16.588728 0.817442916509 0.111843463742
   RANGE                   = 2009-05-01T02:47:16.788729 6795.793093546321 0.050687861115
   DOPPLER_INSTANTANEOUS   = 2009-05-01T02:47:16.788729 0.815241600911 0.111844171626
   RANGE                   = 2009-05-01T02:47:16.988729 6795.446085234048 0.050684581969
   DOPPLER_INSTANTANEOUS   = 2009-05-01T02:47:16.988729 0.813056214677 0.111844885720
   RANGE                   = 2009-05-01T02:47:17.188730 6795.035199835922 0.050681309420
   DOPPLER_INSTANTANEOUS   = 2009-05-01T02:47:17.188730 0.810851007576 0.111845606029
   RANGE                   = 2009-05-01T02:47:17.388731 6794.556416119851 0.050678043470
   DOPPLER_INSTANTANEOUS   = 2009-05-01T02:47:17.388731 0.808674304813 0.111846332559
   RANGE                   = 2009-05-01T02:47:17.588732 6794.287116438954 0.050674784121
   DOPPLER_INSTANTANEOUS   = 2009-05-01T02:47:17.588732 0.806460040868 0.111847065312
   RANGE                   = 2009-05-01T02:47:17.788733 6793.934255969034 0.050671531376
   DOPPLER_INSTANTANEOUS   = 2009-05-01T02:47:17.788733 0.804249918230 0.111847804294
   RANGE                   = 2009-05-01T02:47:17.988733 6793.547358981597 0.050668285235
   DOPPLER_INSTANTANEOUS   = 2009-05-01T02:47:17.988733 0.802058048292 0.111848549509
   RANGE                   = 2009-05-01T02:47:18.188734 6793.123863383013 0.050665045703
   DOPPLER_INSTANTANEOUS   = 2009-05-01T02:47:18.188734 0.799858862735 0.111849300961
   RANGE                   = 2009-05-01T02:47:18.388735 6792.680932076913 0.050661812779
   DOPPLER_INSTANTANEOUS   = 2009-05-01T02:47:18.388735 0.797649898761 0.111850058654
   RANGE                   = 2009-05-01T02:47:18.588735 6792.412093374453 0.050658586468
   DOPPLER_INSTANTANEOUS   = 2009-05-01T02:47:18.588735 0.795456084937 0.111850822593
   RANGE                   = 2009-05-01T02:47:18.788736 6791.964168778106 0.050655366770
   DOPPLER_INSTANTANEOUS   = 2009-05-01T02:47:18.788736 0.793247984435 0.111851592783
   RANGE                   = 2009-05-01T02:47:18.988737 6791.677363140599 0.050652153687
   DOPPLER_INSTANTANEOUS   = 2009-05-01T02:47:18.988737 0.791042791741 0.111852369228
   RANGE                   = 2009-05-01T02:47:19.188737 6791.363613455300 0.050648947223
   DOPPLER_INSTANTANEOUS   = 2009-05-01T02:47:19.188737 0.788845526723 0.111853151931
   RANGE                   = 2009-05-01T02:47:19.388738 6790.836497778490 0.050645747379
   DOPPLER_INSTANTANEOUS   = 2009-05-01T02:47:19.388738 0.786619020549 0.111853940898
   RANGE                   = 2009-05-01T02:47:19.588739 6790.444663055282 0.050642554156
   DOPPLER_INSTANTANEOUS   = 2009-05-01T02:47:19.588739 0.784426196318 0.111854736133
   RANGE                   = 2009-05-01T02:47:19.788740 6790.151657298205 0.050639366918
   DOPPLER_INSTANTANEOUS   = 2009-05-01T02:47:19.788740 0.782224155169 0.111855537803
   RANGE                   = 2009-05-01T02:47:19.988740 6789.946717855435 0.050636186947
   DOPPLER_INSTANTANEOUS   = 2009-05-01T02:47:19.988740 0.780023691291 0.111856345589
   RANGE                   = 2009-05-01T02:47:20.188741 6789.473585911924 0.050633013605
   DOPPLER_INSTANTANEOUS   = 2009-05-01T02:47:20.188741 0.777804131076 0.111857159656
   RANGE                   = 2009-05-01T02:47:20.388742 6788.964350366432 0.050629846893
   DOPPLER_INSTANTANEOUS   = 2009-05-01T02:47:20.388742 0.775601488212 0.111857980009
   RANGE                   = 2009-05-01T02:47:20.588742 6788.644664521174 0.050626686813
   DOPPLER_INSTANTANEOUS   = 2009-05-01T02:47:20.588742 0.773384813695 0.111858806652
   RANGE                   = 2009-05-01T02:47:20.788743 6788.344082890042 0.050623533368
   DOPPLER_INSTANTANEOUS   = 2009-05-01T02:47:20.788743 0.771179845546 0.111859639590
   RANGE                   = 2009-05-01T02:47:20.988744 6787.985409884648 0.050620386560
   DOPPLER_INSTANTANEOUS   = 2009-05-01T02:47:20.988744 0.768972752916 0.111860478827
   RANGE                   = 2009-05-01T02:47:21.188745 6787.586167782139 0.050617246390
   DOPPLER_INSTANTANEOUS   = 2009-05-01T02:47:21.188745 0.766753385505 0.111861324368
   RANGE                   = 2009-05-01T02:47:21.388745 6787.258801483429 0.050614112861
   DOPPLER_INSTANTANEOUS   = 2009-05-01T02:47:21.388745 0.764556276761 0.111862176218
   RANGE                   = 2009-05-01T02:47:21.588746 6786.772551305121 0.050610985974
   DOPPLER_INSTANTANEOUS   = 2009-05-01T02:47:21.588746 0.762349366804 0.111863034380
   RANGE                   = 2009-05-01T02:47:21.788747 6786.548177270781 0.050607865732
   DOPPLER_INSTANTANEOUS   = 2009-05-01T02:47:21.788747 0.760132346718 0.111863898860
   RANGE                   = 2009-05-01T02:47:21.988747 6786.203802932482 0.050604752137
   DOPPLER_INSTANTANEOUS   = 2009-05-01T02:47:21.988747 0.757920089694 0.111864769661
   RANGE                   = 2009-05-01T02:47:22.188748 6785.773181252397 0.050601645191
   DOPPLER_INSTANTANEOUS   = 2009-05-01T02:47:22.188748 0.755711148390 0.111865646790
   RANGE                   = 2009-05-01T02:47:22.388749 6785.402610042534 0.050598544896
   DOPPLER_INSTANTANEOUS   = 2009-05-01T02:47:22.388749 0.753496482703 0.111866530249
   RANGE                   = 2009-05-01T02:47:22.588749 6785.157948077097 0.050595451254
   DOPPLER_INSTANTANEOUS   = 2009-05-01T02:47:22.588749 0.751278047822 0.111867420043
   RANGE                   = 2009-05-01T02:47:22.788750 6784.756667855578 0.050592364267
   DOPPLER_INSTANTANEOUS   = 2009-05-01T02:47:22.788750 0.749066181754 0.111868316178
   RANGE                   = 2009-05-01T02:47:22.988751 6784.340788865464 0.050589283937
   DOPPLER_INSTANTANEOUS   = 2009-05-01T02:47:22.988751 0.746849701285 0.111869218658
   RANGE                   = 2009-05-01T02:47:23.188751 6783.975916079066 0.050586210266
   DOPPLER_INSTANTANEOUS   = 2009-05-01T02:47:23.188751 0.746135595011 0.111870127487
   RANGE                   = 2009-05-01T02:47:23.388752 6783.652907052980 0.050583143257
   DOPPLER_INSTANTANEOUS   = 2009-05-01T02:47:23.388752 0.743906964093 0.111871042670
   RANGE                   = 2009-05-01T02:47:23.588753 6783.317513925786 0.050580082910
   DOPPLER_INSTANTANEOUS   = 2009-05-01T02:47:23.588753 0.741695855459 0.111871964212
   RANGE                   = 2009-05-01T02:47:23.788754 6782.985599150187 0.050577029229
   DOPPLER_INSTANTANEOUS   = 2009-05-01T02:47:23.788754 0.737978173160 0.111872892117
   RANGE                   = 2009-05-01T02:47:23.988754 6782.650876035797 0.050573982215
   DOPPLER_INSTANTANEOUS   = 2009-05-01T02:47:23.988754 0.735772243133 0.111873826390
   RANGE                   = 2009-05-01T02:47:24.188755 6782.187124755443 0.050570941870
   DOPPLER_INSTANTANEOUS   = 2009-05-01T02:47:24.188755 0.733545127080 0.111874767035
   RANGE                   = 2009-05-01T02:47:24.388756 6781.978179396987 0.050567908197
   DOPPLER_INSTANTANEOUS   = 2009-05-01T02:47:24.388756 0.731328435262 0.111875714057
   RANGE                   = 2009-05-01T02:47:24.588756 6781.585707155144 0.050564881197
   DOPPLER_INSTANTANEOUS   = 2009-05-01T02:47:24.588756 0.729107337208 0.111876667462
   RANGE                   = 2009-05-01T02:47:24.788757 6781.230740206531 0.050561860872
   DOPPLER_INSTANTANEOUS   = 2009-05-01T02:47:24.788757 0.726896848568 0.111877627253
   RANGE                   = 2009-05-01T02:47:24.988757 6780.881102993676 0.050558847225
   DOPPLER_INSTANTANEOUS   = 2009-05-01T02:47:24.988757 0.724675544456 0.111878593435
   RANGE                   = 2009-05-01T02:47:25.188758 6780.561398017712 0.050555840257
   DOPPLER_INSTANTANEOUS   = 2009-05-01T02:47:25.188758 0.722454022766 0.111879566013
   RANGE                   = 2009-05-01T02:47:25.388759 6780.147659970744 0.050552839970
   DOPPLER_INSTANTANEOUS   = 2009-05-01T02:47:25.388759 0.720235273373 0.111880544991
   RANGE                   = 2009-05-01T02:47:25.588759 6779.912501407201 0.050549846367
   DOPPLER_INSTANTANEOUS   = 2009-05-01T02:47:25.588759 0.718001561768 0.111881530375
   RANGE                   = 2009-05-01T02:47:25.788760 6779.504195962614 0.050546859450
   DOPPLER_INSTANTANEOUS   = 2009-05-01T02:47:25.788760 0.715783848316 0.111882522169
   RANGE                   = 2009-05-01T02:47:25.988761 6779.193457091656 0.050543879220
   DOPPLER_INSTANTANEOUS   = 2009-05-01T02:47:25.988761 0.713567768206 0.111883520378
   RANGE                   = 2009-05-01T02:47:26.188761 6778.759916116280 0.050540905679
   DOPPLER_INSTANTANEOUS   = 2009-05-01T02:47:26.188761 0.711339038762 0.111884525006
   RANGE                   = 2009-05-01T02:47:26.388762 6778.505908244251 0.050537938830
   DOPPLER_INSTANTANEOUS   = 2009-05-01T02:47:26.388762 0.709103533573 0.111885536059
   RANGE                   = 2009-05-01T02:47:26.588763 6778.157430275829 0.050534978674
   DOPPLER_INSTANTANEOUS   = 2009-05-01T02:47:26.588763 0.706887285715 0.111886553540
   RANGE                   = 2009-05-01T02:47:26.788764 6777.921213564137 0.050532025214
   DOPPLER_INSTANTANEOUS   = 2009-05-01T02:47:26.788764 0.704664050638 0.111887577455
   RANGE                   = 2009-05-01T02:47:26.988764 6777.444053265173 0.050529078451
   DOPPLER_INSTANTANEOUS   = 2009-05-01T02:47:26.988764 0.702423078848 0.111888607809
   RANGE                   = 2009-05-01T02:47:27.188765 6777.140214933966 0.050526137797
   DOPPLER_INSTANTANEOUS   = 2009-05-01T02:47:27.188765 0.700201981224 0.111889644816
   RANGE                   = 2009-05-01T02:47:27.388765 6776.843412936731 0.050523204437
   DOPPLER_INSTANTANEOUS   = 2009-05-01T02:47:27.388765 0.697977841380 0.111890688063
   RANGE                   = 2009-05-01T02:47:27.588766 6776.485893760959 0.050520277780
   DOPPLER_INSTANTANEOUS   = 2009-05-01T02:47:27.588766 0.695753249157 0.111891737762
   RANGE                   = 2009-05-01T02:47:27.788767 6776.157171864039 0.050517357828
   DOPPLER_INSTANTANEOUS   = 2009-05-01T02:47:27.788767 0.693531749662 0.111892793920
   RANGE                   = 2009-05-01T02:47:27.988767 6775.770878316782 0.050514444584
   DOPPLER_INSTANTANEOUS   = 2009-05-01T02:47:27.988767 0.691300248967 0.111893856540
   RANGE                   = 2009-05-01T02:47:28.188768 6775.489633464699 0.050511538050
   DOPPLER_INSTANTANEOUS   = 2009-05-01T02:47:28.188768 0.689067192610 0.111894925628
   RANGE                   = 2009-05-01T02:47:28.388769 6775.114862161233 0.050508638226
   DOPPLER_INSTANTANEOUS   = 2009-05-01T02:47:28.388769 0.686835830312 0.111896001188
   RANGE                   = 2009-05-01T02:47:28.588769 6774.807448063252 0.050505745116
   DOPPLER_INSTANTANEOUS   = 2009-05-01T02:47:28.588769 0.684607271347 0.111897083225
   RANGE                   = 2009-05-01T02:47:28.788770 6774.483389018705 0.050502858722
   DOPPLER_INSTANTANEOUS   = 2009-05-01T02:47:28.788770 0.682371459736 0.111898171745
   RANGE                   = 2009-05-01T02:47:28.988770 6774.064293278002 0.050499979045
   DOPPLER_INSTANTANEOUS   = 2009-05-01T02:47:28.988770 0.680139026114 0.111899266751
   RANGE                   = 2009-05-01T02:47:29.188771 6773.869475869605 0.050497106087
   DOPPLER_INSTANTANEOUS   = 2009-05-01T02:47:29.188771 0.677920872334 0.111900368249
   RANGE                   = 2009-05-01T02:47:29.388772 6773.449986916696 0.050494239850
   DOPPLER_INSTANTANEOUS   = 2009-05-01T02:47:29.388772 0.675679590207 0.111901476244
   RANGE                   = 2009-05-01T02:47:29.588773 6773.194576620562 0.050491380337
   DOPPLER_INSTANTANEOUS   = 2009-05-01T02:47:29.588773 0.673454749275 0.111902590741
   RANGE                   = 2009-05-01T02:47:29.788773 6772.883092958777 0.050488527549
   DOPPLER_INSTANTANEOUS   = 2009-05-01T02:47:29.788773 0.671211933108 0.111903711744
   RANGE                   = 2009-05-01T02:47:29.988774 6772.519799545959 0.050485681488
   DOPPLER_INSTANTANEOUS   = 2009-05-01T02:47:29.988774 0.668975801213 0.111904839258
   RANGE                   = 2009-05-01T02:47:30.188774 6772.141378393888 0.050482842156
   DOPPLER_INSTANTANEOUS   = 2009-05-01T02:47:30.188774 0.666758580266 0.111905973289
   RANGE                   = 2009-05-01T02:47:30.388775 6771.796921052062 0.050480009556
   DOPPLER_INSTANTANEOUS   = 2009-05-01T02:47:30.388775 0.664503489858 0.111907113842
   RANGE                   = 2009-05-01T02:47:30.588776 6771.615568240822 0.050477183688
   DOPPLER_INSTANTANEOUS   = 2009-05-01T02:47:30.588776 0.663613826818 0.111908260921
   RANGE                   = 2009-05-01T02:47:30.788776 6771.299430678531 0.050474364555
   DOPPLER_INSTANTANEOUS   = 2009-05-01T02:47:30.788776 0.661360463900 0.111909414531
   RANGE                   = 2009-05-01T02:47:30.988777 6770.832862808100 0.050471552160
   DOPPLER_INSTANTANEOUS   = 2009-05-01T02:47:30.988777 0.659109917740 0.111910574677
   RANGE                   = 2009-05-01T02:47:31.188777 6770.575976138495 0.050468746503
   DOPPLER_INSTANTANEOUS   = 2009-05-01T02:47:31.188777 0.656883419569 0.111911741365
   RANGE                   = 2009-05-01T02:47:31.388778 6770.241579163339 0.050465947587
   DOPPLER_INSTANTANEOUS   = 2009-05-01T02:47:31.388778 0.653324787429 0.111912914599
   RANGE                   = 2009-05-01T02:47:31.588779 6769.859176512200 0.050463155414
   DOPPLER_INSTANTANEOUS   = 2009-05-01T02:47:31.588779 0.651088382701 0.111914094384
   RANGE                   = 2009-05-01T02:47:31.788779 6769.628661979368 0.050460369986
   DOPPLER_INSTANTANEOUS   = 2009-05-01T02:47:31.788779 0.648849119835 0.111915280726
   RANGE                   = 2009-05-01T02:47:31.988780 6769.423067415519 0.050457591304
   DOPPLER_INSTANTANEOUS   = 2009-05-01T02:47:31.988780 0.646605230701 0.111916473629
   RANGE                   = 2009-05-01T02:47:32.188781 6769.017391748937 0.050454819372
   DOPPLER_INSTANTANEOUS   = 2009-05-01T02:47:32.188781 0.644372110680 0.111917673098
   RANGE                   = 2009-05-01T02:47:32.388781 6768.665577396848 0.050452054189
   DOPPLER_INSTANTANEOUS   = 2009-05-01T02:47:32.388781 0.642130263304 0.111918879139
   RANGE                   = 2009-05-01T02:47:32.588782 6768.312311788058 0.050449295759
   DOPPLER_INSTANTANEOUS   = 2009-05-01T02:47:32.588782 0.639881935988 0.111920091756
   RANGE                   = 2009-05-01T02:47:32.788782 6767.994641922811 0.050446544084
   DOPPLER_INSTANTANEOUS   = 2009-05-01T02:47:32.788782 0.637645277815 0.111921310955
   RANGE                   = 2009-05-01T02:47:32.988783 6767.824908574038 0.050443799165
   DOPPLER_INSTANTANEOUS   = 2009-05-01T02:47:32.988783 0.635409501304 0.111922536741
   RANGE                   = 2009-05-01T02:47:33.188784 6767.553793908064 0.050441061004
   DOPPLER_INSTANTANEOUS   = 2009-05-01T02:47:33.188784 0.633163700121 0.111923769118
   RANGE                   = 2009-05-01T02:47:33.388784 6767.150301903621 0.050438329604
   DOPPLER_INSTANTANEOUS   = 2009-05-01T02:47:33.388784 0.630912989278 0.111925008092
   RANGE                   = 2009-05-01T02:47:33.588785 6766.809967194314 0.050435604965
   DOPPLER_INSTANTANEOUS   = 2009-05-01T02:47:33.588785 0.628669649661 0.111926253668
   RANGE                   = 2009-05-01T02:47:33.788785 6766.497864740546 0.050432887091
   DOPPLER_INSTANTANEOUS   = 2009-05-01T02:47:33.788785 0.626434409733 0.111927505851
   RANGE                   = 2009-05-01T02:47:33.988786 6766.130954416943 0.050430175983
   DOPPLER_INSTANTANEOUS   = 2009-05-01T02:47:33.988786 0.624195299222 0.111928764647
   RANGE                   = 2009-05-01T02:47:34.188787 6765.958176440800 0.050427471642
   DOPPLER_INSTANTANEOUS   = 2009-05-01T02:47:34.188787 0.621946758540 0.111930030060
   RANGE                   = 2009-05-01T02:47:34.388787 6765.658447992861 0.050424774072
   DOPPLER_INSTANTANEOUS   = 2009-05-01T02:47:34.388787 0.619691808722 0.111931302095
   RANGE                   = 2009-05-01T02:47:34.588788 6765.331472867188 0.050422082732
   DOPPLER_INSTANTANEOUS   = 2009-05-01T02:47:34.588788 0.617451689539 0.111932581016
   RANGE                   = 2009-05-01T02:47:34.788789 6764.987229251162 0.050419398708
   DOPPLER_INSTANTANEOUS   = 2009-05-01T02:47:34.788789 0.615200066980 0.111933866313
   RANGE                   = 2009-05-01T02:47:34.988789 6764.818385339705 0.050416721460
   DOPPLER_INSTANTANEOUS   = 2009-05-01T02:47:34.988789 0.612958565297 0.111935158249
   RANGE                   = 2009-05-01T02:47:35.188790 6764.485935836889 0.050414050989
   DOPPLER_INSTANTANEOUS   = 2009-05-01T02:47:35.188790 0.610702969459 0.111936456827
   RANGE                   = 2009-05-01T02:47:35.388790 6764.110130698476 0.050411387297
   DOPPLER_INSTANTANEOUS   = 2009-05-01T02:47:35.388790 0.608457967644 0.111937762054
   RANGE                   = 2009-05-01T02:47:35.588791 6763.810545952925 0.050408730387
   DOPPLER_INSTANTANEOUS   = 2009-05-01T02:47:35.588791 0.606209660092 0.111939073935
   RANGE                   = 2009-05-01T02:47:35.788791 6763.534854388123 0.050406080259
   DOPPLER_INSTANTANEOUS   = 2009-05-01T02:47:35.788791 0.603956229502 0.111940392474
   RANGE                   = 2009-05-01T02:47:35.988792 6763.244639186102 0.050403436917
   DOPPLER_INSTANTANEOUS   = 2009-05-01T02:47:35.988792 0.601708081602 0.111941717678
   RANGE                   = 2009-05-01T02:47:36.188793 6762.921158606188 0.050400800362
   DOPPLER_INSTANTANEOUS   = 2009-05-01T02:47:36.188793 0.599456654675 0.111943049551
   RANGE                   = 2009-05-01T02:47:36.388793 6762.560208045504 0.050398170595
   DOPPLER_INSTANTANEOUS   = 2009-05-01T02:47:36.388793 0.597209572294 0.111944388099
   RANGE                   = 2009-05-01T02:47:36.588794 6762.356839942650 0.050395547619
   DOPPLER_INSTANTANEOUS   = 2009-05-01T02:47:36.588794 0.594967856976 0.111945733327
   RANGE                   = 2009-05-01T02:47:36.788794 6762.048169956132 0.050392931436
   DOPPLER_INSTANTANEOUS   = 2009-05-01T02:47:36.788794 0.592712634418 0.111947085240
   RANGE                   = 2009-05-01T02:47:36.988795 6761.826017851151 0.050390322047
   DOPPLER_INSTANTANEOUS   = 2009-05-01T02:47:36.988795 0.590453636781 0.111948443843
   RANGE                   = 2009-05-01T02:47:37.188796 6761.457520140963 0.050387719454
   DOPPLER_INSTANTANEOUS   = 2009-05-01T02:47:37.188796 0.588208715274 0.111949809142
   RANGE                   = 2009-05-01T02:47:37.388796 6761.225404736367 0.050385123660
   DOPPLER_INSTANTANEOUS   = 2009-05-01T02:47:37.388796 0.585963193475 0.111951181143
   RANGE                   = 2009-05-01T02:47:37.588797 6760.799052233663 0.050382534666
   DOPPLER_INSTANTANEOUS   = 2009-05-01T02:47:37.588797 0.583693874814 0.111952559849
   RANGE                   = 2009-05-01T02:47:37.788797 6760.636314067851 0.050379952474
   DOPPLER_INSTANTANEOUS   = 2009-05-01T02:47:37.788797 0.581439544841 0.111953945268
   RANGE                   = 2009-05-01T02:47:37.988798 6760.262580563940 0.050377377085
   DOPPLER_INSTANTANEOUS   = 2009-05-01T02:47:37.988798 0.580367789514 0.111955337404
   RANGE                   = 2009-05-01T02:47:38.188798 6760.009196377268 0.050374808502
   DOPPLER_INSTANTANEOUS   = 2009-05-01T02:47:38.188798 0.578102883070 0.111956736262
   RANGE                   = 2009-05-01T02:47:38.388799 6759.711170590672 0.050372246727
   DOPPLER_INSTANTANEOUS   = 2009-05-01T02:47:38.388799 0.575838931957 0.111958141848
   RANGE                   = 2009-05-01T02:47:38.588799 6759.454543400379 0.050369691761
   DOPPLER_INSTANTANEOUS   = 2009-05-01T02:47:38.588799 0.573578278902 0.111959554167
   RANGE                   = 2009-05-01T02:47:38.788800 6759.116386513403 0.050367143606
   DOPPLER_INSTANTANEOUS   = 2009-05-01T02:47:38.788800 0.570171153838 0.111960973225
   RANGE                   = 2009-05-01T02:47:38.988801 6758.829832858381 0.050364602265
   DOPPLER_INSTANTANEOUS   = 2009-05-01T02:47:38.988801 0.567917043260 0.111962399026
   RANGE                   = 2009-05-01T02:47:39.188801 6758.619709855438 0.050362067739
