examples/example_data/track-1241145440-1001120300074-0_2.tdm

CCSDS_TDM_VERS = 1.0
   COMMENT MASTER ID 1001120300074.0
   COMMENT TX_ECEF (2116582.848329356872,783500.738468278782,5945469.151553326286)
   COMMENT RX_ECEF (2240531.207530094311,805311.241482983693,5897265.538548513316)
   COMMENT This is a simulated track of MASTER ID 1001120300074.0 with EISCAT 3D
   COMMENT 233 MHz, time of flight, with ionospheric corrections
   COMMENT EISCAT 3D coordinates: 
   COMMENT Author(s): SORTS.
   CREATION_DATE       = 2019-04-11T20:29:23
META_START
   TIME_SYSTEM         = UTC
   START_TIME          = 2009-05-01T02:37:20.582423
   STOP_TIME           = 2009-05-01T02:49:27.388875
   PARTICIPANT_1       = Skibotn TX
   PARTICIPANT_2       = 1001120300074.0
   PARTICIPANT_3       = Kaiseniemi
   MODE                = SEQUENTIAL
   PATH                = 1,2,3
   TRANSMIT_BAND       = 233000000.00000
   RECEIVE_BAND        = 233000000.00000
   TIMETAG_REF         = TRANSMIT
   INTEGRATION_REF     = START
   RANGE_MODE          = CONSTANT
   RANGE_MODULUS       = 2.56
   RANGE_UNITS         = KM
   DATA_QUALITY        = VALIDATED
   CORRECTION_RANGE    = 0.0
   NOISE_DATA          = ON
   CORRECTIONS_APPLIED = NO
META_STOP
DATA_START
   RANGE                   = 2009-05-01T02:37:20.582423 10459.540415445515 0.079055537029
   DOPPLER_INSTANTANEOUS   = 2009-05-01T02:37:20.582423 4.129182371768 0.132783698433
   RANGE                   = 2009-05-01T02:37:20.782425 10457.904118270011 0.079042818454
   DOPPLER_INSTANTANEOUS   = 2009-05-01T02:37:20.782425 4.128903481168 0.132767858318
   RANGE                   = 2009-05-01T02:37:20.982428 10456.127746964508 0.079030100615
   DOPPLER_INSTANTANEOUS   = 2009-05-01T02:37:20.982428 4.128604250184 0.132752025954
   RANGE                   = 2009-05-01T02:37:21.182431 10454.484942506584 0.079017383511
   DOPPLER_INSTANTANEOUS   = 2009-05-01T02:37:21.182431 4.128317693279 0.132736201341
   RANGE                   = 2009-05-01T02:37:21.382434 10452.968265483400 0.079004667143
   DOPPLER_INSTANTANEOUS   = 2009-05-01T02:37:21.382434 4.128003643815 0.132720384474
   RANGE                   = 2009-05-01T02:37:21.582437 10451.098892345064 0.078991951512
   DOPPLER_INSTANTANEOUS   = 2009-05-01T02:37:21.582437 4.127718811023 0.132704575351
   RANGE                   = 2009-05-01T02:37:21.782439 10449.573899300683 0.078979236619
   DOPPLER_INSTANTANEOUS   = 2009-05-01T02:37:21.782439 4.127442625251 0.132688773968
   RANGE                   = 2009-05-01T02:37:21.982442 10447.867303345820 0.078966522465
   DOPPLER_INSTANTANEOUS   = 2009-05-01T02:37:21.982442 4.127182604884 0.132672980324
   RANGE                   = 2009-05-01T02:37:22.182445 10446.308522341793 0.078953809050
   DOPPLER_INSTANTANEOUS   = 2009-05-01T02:37:22.182445 4.126848955409 0.132657194415
   RANGE                   = 2009-05-01T02:37:22.382448 10444.447559367583 0.078941096376
   DOPPLER_INSTANTANEOUS   = 2009-05-01T02:37:22.382448 4.134906384965 0.132641416238
   RANGE                   = 2009-05-01T02:37:22.582451 10442.813194984668 0.078928384443
   DOPPLER_INSTANTANEOUS   = 2009-05-01T02:37:22.582451 4.134605573466 0.132625645791
   RANGE                   = 2009-05-01T02:37:22.782454 10441.169527658090 0.078915673252
   DOPPLER_INSTANTANEOUS   = 2009-05-01T02:37:22.782454 4.134304369994 0.132609883070
   RANGE                   = 2009-05-01T02:37:22.982456 10439.436578491774 0.078902962805
   DOPPLER_INSTANTANEOUS   = 2009-05-01T02:37:22.982456 4.125696915994 0.132594128073
   RANGE                   = 2009-05-01T02:37:23.182459 10437.853297577762 0.078890253101
   DOPPLER_INSTANTANEOUS   = 2009-05-01T02:37:23.182459 4.125458482582 0.132578380797
   RANGE                   = 2009-05-01T02:37:23.382462 10436.136976934873 0.078877544142
   DOPPLER_INSTANTANEOUS   = 2009-05-01T02:37:23.382462 4.125139072955 0.132562641238
   RANGE                   = 2009-05-01T02:37:23.582465 10434.391947660799 0.078864835928
   DOPPLER_INSTANTANEOUS   = 2009-05-01T02:37:23.582465 4.124853252878 0.132546909395
   RANGE                   = 2009-05-01T02:37:23.782468 10432.806991042913 0.078852128461
   DOPPLER_INSTANTANEOUS   = 2009-05-01T02:37:23.782468 4.124563310599 0.132531185264
   RANGE                   = 2009-05-01T02:37:23.982471 10431.007462348851 0.078839421741
   DOPPLER_INSTANTANEOUS   = 2009-05-01T02:37:23.982471 4.124280425000 0.132515468843
   RANGE                   = 2009-05-01T02:37:24.182473 10429.380700225418 0.078826715770
   DOPPLER_INSTANTANEOUS   = 2009-05-01T02:37:24.182473 4.123961107123 0.132499760128
DATA_STOP
