examples/example_data/track-1241145440-1001120300074-0_0.tdm

CCSDS_TDM_VERS = 1.0
   COMMENT MASTER ID 1001120300074.0
   COMMENT TX_ECEF (2116582.848329356872,783500.738468278782,5945469.151553326286)
   COMMENT RX_ECEF (2116582.848329356872,783500.738468278782,5945469.151553326286)
   COMMENT This is a simulated track of MASTER ID 1001120300074.0 with EISCAT 3D
   COMMENT 233 MHz, time of flight, with ionospheric corrections
   COMMENT EISCAT 3D coordinates: 
   COMMENT Author(s): SORTS.
   CREATION_DATE       = 2019-04-11T20:29:23
META_START
   TIME_SYSTEM         = UTC
   START_TIME          = 2009-05-01T02:37:20.582423
   STOP_TIME           = 2009-05-01T02:49:50.388830
   PARTICIPANT_1       = Skibotn TX
   PARTICIPANT_2       = 1001120300074.0
   PARTICIPANT_3       = Skibotn
   MODE                = SEQUENTIAL
   PATH                = 1,2,3
   TRANSMIT_BAND       = 233000000.00000
   RECEIVE_BAND        = 233000000.00000
   TIMETAG_REF         = TRANSMIT
   INTEGRATION_REF     = START
   RANGE_MODE          = CONSTANT
   RANGE_MODULUS       = 2.56
   RANGE_UNITS         = KM
   DATA_QUALITY        = VALIDATED
   CORRECTION_RANGE    = 0.0
   NOISE_DATA          = ON
   CORRECTIONS_APPLIED = NO
META_STOP
DATA_START
   RANGE                   = 2009-05-01T02:37:20.582423 10539.162206964465 0.079056400612
   DOPPLER_INSTANTANEOUS   = 2009-05-01T02:37:20.582423 4.235569719850 0.133943662449
   RANGE                   = 2009-05-01T02:37:20.782425 10537.399467575642 0.079043681153
   DOPPLER_INSTANTANEOUS   = 2009-05-01T02:37:20.782425 4.235353551608 0.133927004821
   RANGE                   = 2009-05-01T02:37:20.982428 10535.773661467867 0.079030962430
   DOPPLER_INSTANTANEOUS   = 2009-05-01T02:37:20.982428 4.235077345552 0.133910355365
   RANGE                   = 2009-05-01T02:37:21.182431 10533.988077401345 0.079018244443
   DOPPLER_INSTANTANEOUS   = 2009-05-01T02:37:21.182431 4.234858086695 0.133893714078
   RANGE                   = 2009-05-01T02:37:21.382434 10532.327512632826 0.079005527193
   DOPPLER_INSTANTANEOUS   = 2009-05-01T02:37:21.382434 4.234597837785 0.133877080957
   RANGE                   = 2009-05-01T02:37:21.582437 10530.632095542835 0.078992810681
   DOPPLER_INSTANTANEOUS   = 2009-05-01T02:37:21.582437 4.234347852390 0.133860455999
   RANGE                   = 2009-05-01T02:37:21.782439 10529.061283443883 0.078980094908
   DOPPLER_INSTANTANEOUS   = 2009-05-01T02:37:21.782439 4.234112572604 0.133843839201
   RANGE                   = 2009-05-01T02:37:21.982442 10527.211719718647 0.078967379874
   DOPPLER_INSTANTANEOUS   = 2009-05-01T02:37:21.982442 4.233865670713 0.133827230559
   RANGE                   = 2009-05-01T02:37:22.182445 10525.505855419806 0.078954665581
   DOPPLER_INSTANTANEOUS   = 2009-05-01T02:37:22.182445 4.233662803844 0.133810630071
   RANGE                   = 2009-05-01T02:37:22.382448 10523.853958577629 0.078941952029
   DOPPLER_INSTANTANEOUS   = 2009-05-01T02:37:22.382448 4.241891837287 0.133794037733
   RANGE                   = 2009-05-01T02:37:22.582451 10522.278817794813 0.078929239219
   DOPPLER_INSTANTANEOUS   = 2009-05-01T02:37:22.582451 4.241667934591 0.133777453542
   RANGE                   = 2009-05-01T02:37:22.782454 10520.563583455087 0.078916527152
   DOPPLER_INSTANTANEOUS   = 2009-05-01T02:37:22.782454 4.241440390141 0.133760877496
   RANGE                   = 2009-05-01T02:37:22.982456 10518.804130298271 0.078903815829
   DOPPLER_INSTANTANEOUS   = 2009-05-01T02:37:22.982456 4.232681550252 0.133744309591
   RANGE                   = 2009-05-01T02:37:23.182459 10517.092250901249 0.078891105250
   DOPPLER_INSTANTANEOUS   = 2009-05-01T02:37:23.182459 4.232402496587 0.133727749823
   RANGE                   = 2009-05-01T02:37:23.382462 10515.386608607474 0.078878395417
   DOPPLER_INSTANTANEOUS   = 2009-05-01T02:37:23.382462 4.232154429748 0.133711198191
   RANGE                   = 2009-05-01T02:37:23.582465 10513.676478054806 0.078865686331
   DOPPLER_INSTANTANEOUS   = 2009-05-01T02:37:23.582465 4.231940353520 0.133694654690
   RANGE                   = 2009-05-01T02:37:23.782468 10512.024513907767 0.078852977991
   DOPPLER_INSTANTANEOUS   = 2009-05-01T02:37:23.782468 4.231684168107 0.133678119318
   RANGE                   = 2009-05-01T02:37:23.982471 10510.454012670682 0.078840270400
   DOPPLER_INSTANTANEOUS   = 2009-05-01T02:37:23.982471 4.231444486786 0.133661592071
   RANGE                   = 2009-05-01T02:37:24.182473 10508.661081960563 0.078827563558
   DOPPLER_INSTANTANEOUS   = 2009-05-01T02:37:24.182473 4.231206566622 0.133645072947
   RANGE                   = 2009-05-01T02:37:24.382476 10506.945078416309 0.078814857465
   DOPPLER_INSTANTANEOUS   = 2009-05-01T02:37:24.382476 4.230931184889 0.133628561942
   RANGE                   = 2009-05-01T02:37:24.582479 10505.189452060416 0.078802152123
   DOPPLER_INSTANTANEOUS   = 2009-05-01T02:37:24.582479 4.230694429785 0.133612059053
   RANGE                   = 2009-05-01T02:37:24.782482 10503.652185557114 0.078789447532
   DOPPLER_INSTANTANEOUS   = 2009-05-01T02:37:24.782482 4.230437551353 0.133595564277
   RANGE                   = 2009-05-01T02:37:24.982485 10501.945248280221 0.078776743694
   DOPPLER_INSTANTANEOUS   = 2009-05-01T02:37:24.982485 4.230212791975 0.133579077611
   RANGE                   = 2009-05-01T02:37:25.182487 10500.237662184070 0.078764040609
   DOPPLER_INSTANTANEOUS   = 2009-05-01T02:37:25.182487 4.229938228127 0.133562599052
   RANGE                   = 2009-05-01T02:37:25.382490 10498.477365838398 0.078751338277
   DOPPLER_INSTANTANEOUS   = 2009-05-01T02:37:25.382490 4.229728717438 0.133546128597
   RANGE                   = 2009-05-01T02:37:25.582493 10496.709452475281 0.078738636701
   DOPPLER_INSTANTANEOUS   = 2009-05-01T02:37:25.582493 4.229445804723 0.133529666243
   RANGE                   = 2009-05-01T02:37:25.782496 10495.002396565847 0.078725935881
   DOPPLER_INSTANTANEOUS   = 2009-05-01T02:37:25.782496 4.229208268171 0.133513211986
   RANGE                   = 2009-05-01T02:37:25.982499 10493.409777845389 0.078713235817
   DOPPLER_INSTANTANEOUS   = 2009-05-01T02:37:25.982499 4.228938179949 0.133496765824
   RANGE                   = 2009-05-01T02:37:26.182502 10491.876124568580 0.078700536510
   DOPPLER_INSTANTANEOUS   = 2009-05-01T02:37:26.182502 4.228684235173 0.133480327753
   RANGE                   = 2009-05-01T02:37:26.382504 10490.206120590316 0.078687835408
   DOPPLER_INSTANTANEOUS   = 2009-05-01T02:37:26.382504 4.228436640876 0.133463894466
   RANGE                   = 2009-05-01T02:37:26.582507 10488.372514999764 0.078675137619
   DOPPLER_INSTANTANEOUS   = 2009-05-01T02:37:26.582507 4.228199626278 0.133447472571
   RANGE                   = 2009-05-01T02:37:26.782510 10486.566004278415 0.078662440590
   DOPPLER_INSTANTANEOUS   = 2009-05-01T02:37:26.782510 4.227927041963 0.133431058757
   RANGE                   = 2009-05-01T02:37:26.982513 10484.939599013724 0.078649744322
   DOPPLER_INSTANTANEOUS   = 2009-05-01T02:37:26.982513 4.227697939227 0.133414653023
   RANGE                   = 2009-05-01T02:37:27.182516 10483.238945340654 0.078637048816
   DOPPLER_INSTANTANEOUS   = 2009-05-01T02:37:27.182516 4.227409602360 0.133398255365
   RANGE                   = 2009-05-01T02:37:27.382519 10481.516079539557 0.078624354072
   DOPPLER_INSTANTANEOUS   = 2009-05-01T02:37:27.382519 4.227211393036 0.133381865780
   RANGE                   = 2009-05-01T02:37:27.582521 10479.824251436647 0.078611660092
   DOPPLER_INSTANTANEOUS   = 2009-05-01T02:37:27.582521 4.226929131225 0.133365484265
   RANGE                   = 2009-05-01T02:37:27.782524 10478.193915159789 0.078598966876
   DOPPLER_INSTANTANEOUS   = 2009-05-01T02:37:27.782524 4.226686951385 0.133349110816
   RANGE                   = 2009-05-01T02:37:27.982527 10476.664293677444 0.078586274426
   DOPPLER_INSTANTANEOUS   = 2009-05-01T02:37:27.982527 4.226424400782 0.133332745432
   RANGE                   = 2009-05-01T02:37:28.182530 10474.727925476865 0.078573582741
   DOPPLER_INSTANTANEOUS   = 2009-05-01T02:37:28.182530 4.226192855988 0.133316388108
   RANGE                   = 2009-05-01T02:37:28.382533 10473.073142900708 0.078560891824
   DOPPLER_INSTANTANEOUS   = 2009-05-01T02:37:28.382533 4.225933182083 0.133300038841
   RANGE                   = 2009-05-01T02:37:28.582536 10471.354635680635 0.078548201674
   DOPPLER_INSTANTANEOUS   = 2009-05-01T02:37:28.582536 4.225687586757 0.133283697630
   RANGE                   = 2009-05-01T02:37:28.782538 10469.692795606461 0.078535512293
   DOPPLER_INSTANTANEOUS   = 2009-05-01T02:37:28.782538 4.225429831326 0.133267364469
   RANGE                   = 2009-05-01T02:37:28.982541 10468.094786764574 0.078522823681
   DOPPLER_INSTANTANEOUS   = 2009-05-01T02:37:28.982541 4.225171669898 0.133251039358
   RANGE                   = 2009-05-01T02:37:29.182544 10466.334553319683 0.078510135840
   DOPPLER_INSTANTANEOUS   = 2009-05-01T02:37:29.182544 4.224888697740 0.133234722291
   RANGE                   = 2009-05-01T02:37:29.382547 10464.660435162930 0.078497448770
   DOPPLER_INSTANTANEOUS   = 2009-05-01T02:37:29.382547 4.224663314278 0.133218413267
   RANGE                   = 2009-05-01T02:37:29.582550 10463.039505467917 0.078484762472
   DOPPLER_INSTANTANEOUS   = 2009-05-01T02:37:29.582550 4.224382813514 0.133202112282
   RANGE                   = 2009-05-01T02:37:29.782552 10461.275477672907 0.078472076947
   DOPPLER_INSTANTANEOUS   = 2009-05-01T02:37:29.782552 4.232640603195 0.133185819334
   RANGE                   = 2009-05-01T02:37:29.982555 10459.575500427583 0.078459392196
   DOPPLER_INSTANTANEOUS   = 2009-05-01T02:37:29.982555 4.232388006835 0.133169534418
   RANGE                   = 2009-05-01T02:37:30.182558 10457.851671122095 0.078446708219
   DOPPLER_INSTANTANEOUS   = 2009-05-01T02:37:30.182558 4.232127040353 0.133153257533
   RANGE                   = 2009-05-01T02:37:30.382561 10456.204554663913 0.078434025018
   DOPPLER_INSTANTANEOUS   = 2009-05-01T02:37:30.382561 4.223394226699 0.133136988674
   RANGE                   = 2009-05-01T02:37:30.582564 10454.432780257686 0.078421342594
   DOPPLER_INSTANTANEOUS   = 2009-05-01T02:37:30.582564 4.223068711331 0.133120727840
   RANGE                   = 2009-05-01T02:37:30.782567 10452.946093347777 0.078408660947
   DOPPLER_INSTANTANEOUS   = 2009-05-01T02:37:30.782567 4.222860233633 0.133104475027
   RANGE                   = 2009-05-01T02:37:30.982569 10451.012646945468 0.078395980078
   DOPPLER_INSTANTANEOUS   = 2009-05-01T02:37:30.982569 4.222612375184 0.133088230231
   RANGE                   = 2009-05-01T02:37:31.182572 10449.458952575418 0.078383299988
   DOPPLER_INSTANTANEOUS   = 2009-05-01T02:37:31.182572 4.222374164189 0.133071993451
   RANGE                   = 2009-05-01T02:37:31.382575 10447.832172468734 0.078370620679
   DOPPLER_INSTANTANEOUS   = 2009-05-01T02:37:31.382575 4.222090247267 0.133055764682
   RANGE                   = 2009-05-01T02:37:31.582578 10446.068755335637 0.078357942150
   DOPPLER_INSTANTANEOUS   = 2009-05-01T02:37:31.582578 4.221845448050 0.133039543922
   RANGE                   = 2009-05-01T02:37:31.782581 10444.533170457606 0.078345264402
   DOPPLER_INSTANTANEOUS   = 2009-05-01T02:37:31.782581 4.221567820720 0.133023331168
   RANGE                   = 2009-05-01T02:37:31.982584 10442.663100284426 0.078332587437
   DOPPLER_INSTANTANEOUS   = 2009-05-01T02:37:31.982584 4.221319225472 0.133007126416
   RANGE                   = 2009-05-01T02:37:32.182586 10440.959447593148 0.078319911256
   DOPPLER_INSTANTANEOUS   = 2009-05-01T02:37:32.182586 4.221045440616 0.132990929664
   RANGE                   = 2009-05-01T02:37:32.382589 10439.309182927833 0.078307235859
   DOPPLER_INSTANTANEOUS   = 2009-05-01T02:37:32.382589 4.220822772464 0.132974740909
   RANGE                   = 2009-05-01T02:37:32.582592 10437.743438744079 0.078294561247
   DOPPLER_INSTANTANEOUS   = 2009-05-01T02:37:32.582592 4.220558017953 0.132958560148
   RANGE                   = 2009-05-01T02:37:32.782595 10435.828772286965 0.078281887422
   DOPPLER_INSTANTANEOUS   = 2009-05-01T02:37:32.782595 4.220286566601 0.132942387377
   RANGE                   = 2009-05-01T02:37:32.982598 10434.209860385130 0.078269214383
   DOPPLER_INSTANTANEOUS   = 2009-05-01T02:37:32.982598 4.220011935289 0.132926222594
   RANGE                   = 2009-05-01T02:37:33.182600 10432.409791998109 0.078256542132
   DOPPLER_INSTANTANEOUS   = 2009-05-01T02:37:33.182600 4.219777676730 0.132910065795
   RANGE                   = 2009-05-01T02:37:33.382603 10430.849164785943 0.078243870669
   DOPPLER_INSTANTANEOUS   = 2009-05-01T02:37:33.382603 4.219507197877 0.132893916978
   RANGE                   = 2009-05-01T02:37:33.582606 10429.241805167521 0.078231199997
   DOPPLER_INSTANTANEOUS   = 2009-05-01T02:37:33.582606 4.219239718120 0.132877776139
   RANGE                   = 2009-05-01T02:37:33.782609 10427.580412406593 0.078218527566
   DOPPLER_INSTANTANEOUS   = 2009-05-01T02:37:33.782609 4.218981811783 0.132861640032
   RANGE                   = 2009-05-01T02:37:33.982612 10425.843323321966 0.078205858475
   DOPPLER_INSTANTANEOUS   = 2009-05-01T02:37:33.982612 4.218775238458 0.132845515142
   RANGE                   = 2009-05-01T02:37:34.182614 10424.075643234850 0.078193190177
   DOPPLER_INSTANTANEOUS   = 2009-05-01T02:37:34.182614 4.218456849758 0.132829398223
   RANGE                   = 2009-05-01T02:37:34.382617 10422.552604477542 0.078180522671
   DOPPLER_INSTANTANEOUS   = 2009-05-01T02:37:34.382617 4.218201635127 0.132813289270
   RANGE                   = 2009-05-01T02:37:34.582620 10420.962947400301 0.078167855960
   DOPPLER_INSTANTANEOUS   = 2009-05-01T02:37:34.582620 4.217978343796 0.132797188280
   RANGE                   = 2009-05-01T02:37:34.782623 10419.031734342592 0.078155190043
   DOPPLER_INSTANTANEOUS   = 2009-05-01T02:37:34.782623 4.217671360779 0.132781095251
   RANGE                   = 2009-05-01T02:37:34.982626 10417.250000884478 0.078142524922
   DOPPLER_INSTANTANEOUS   = 2009-05-01T02:37:34.982626 4.217420388563 0.132765010179
   RANGE                   = 2009-05-01T02:37:35.182628 10415.603740794286 0.078129860598
   DOPPLER_INSTANTANEOUS   = 2009-05-01T02:37:35.182628 4.217145238689 0.132748933061
   RANGE                   = 2009-05-01T02:37:35.382631 10413.921339162000 0.078117197071
   DOPPLER_INSTANTANEOUS   = 2009-05-01T02:37:35.382631 4.216903941215 0.132732863895
   RANGE                   = 2009-05-01T02:37:35.582634 10412.266775608952 0.078104534343
   DOPPLER_INSTANTANEOUS   = 2009-05-01T02:37:35.582634 4.216621954472 0.132716802677
   RANGE                   = 2009-05-01T02:37:35.782637 10410.753569314653 0.078091872414
   DOPPLER_INSTANTANEOUS   = 2009-05-01T02:37:35.782637 4.216346608187 0.132700749405
   RANGE                   = 2009-05-01T02:37:35.982640 10409.031158148633 0.078079211285
   DOPPLER_INSTANTANEOUS   = 2009-05-01T02:37:35.982640 4.216077935588 0.132684704075
   RANGE                   = 2009-05-01T02:37:36.182642 10407.138606747665 0.078066550957
   DOPPLER_INSTANTANEOUS   = 2009-05-01T02:37:36.182642 4.215817044591 0.132668666684
   RANGE                   = 2009-05-01T02:37:36.382645 10405.677316311290 0.078053891431
   DOPPLER_INSTANTANEOUS   = 2009-05-01T02:37:36.382645 4.215570397122 0.132652637230
   RANGE                   = 2009-05-01T02:37:36.582648 10403.875658945759 0.078041232708
   DOPPLER_INSTANTANEOUS   = 2009-05-01T02:37:36.582648 4.215319424122 0.132636615709
   RANGE                   = 2009-05-01T02:37:36.782651 10402.344106166773 0.078028574789
   DOPPLER_INSTANTANEOUS   = 2009-05-01T02:37:36.782651 4.215024379259 0.132620602119
   RANGE                   = 2009-05-01T02:37:36.982654 10400.490639608568 0.078015917674
   DOPPLER_INSTANTANEOUS   = 2009-05-01T02:37:36.982654 4.214771919624 0.132604596456
   RANGE                   = 2009-05-01T02:37:37.182657 10398.785559635377 0.078003261365
   DOPPLER_INSTANTANEOUS   = 2009-05-01T02:37:37.182657 4.222991948732 0.132588598718
   RANGE                   = 2009-05-01T02:37:37.382659 10397.085795805833 0.077990605862
   DOPPLER_INSTANTANEOUS   = 2009-05-01T02:37:37.382659 4.222707012390 0.132572608901
   RANGE                   = 2009-05-01T02:37:37.582662 10395.476055294290 0.077977951167
   DOPPLER_INSTANTANEOUS   = 2009-05-01T02:37:37.582662 4.222447033203 0.132556627002
   RANGE                   = 2009-05-01T02:37:37.782665 10393.743469409943 0.077965297280
   DOPPLER_INSTANTANEOUS   = 2009-05-01T02:37:37.782665 4.213685014670 0.132540653019
   RANGE                   = 2009-05-01T02:37:37.982668 10392.077564979840 0.077952644201
   DOPPLER_INSTANTANEOUS   = 2009-05-01T02:37:37.982668 4.213468985738 0.132524686948
   RANGE                   = 2009-05-01T02:37:38.182671 10390.358355878143 0.077939991933
   DOPPLER_INSTANTANEOUS   = 2009-05-01T02:37:38.182671 4.213226892277 0.132508728787
   RANGE                   = 2009-05-01T02:37:38.382674 10388.705009103829 0.077927340476
   DOPPLER_INSTANTANEOUS   = 2009-05-01T02:37:38.382674 4.212897925953 0.132492778533
   RANGE                   = 2009-05-01T02:37:38.582676 10386.954833495864 0.077914689830
   DOPPLER_INSTANTANEOUS   = 2009-05-01T02:37:38.582676 4.212646894395 0.132476836181
   RANGE                   = 2009-05-01T02:37:38.782679 10385.231051624163 0.077902039997
   DOPPLER_INSTANTANEOUS   = 2009-05-01T02:37:38.782679 4.212356368585 0.132460901731
   RANGE                   = 2009-05-01T02:37:38.982682 10383.741124827864 0.077889390977
   DOPPLER_INSTANTANEOUS   = 2009-05-01T02:37:38.982682 4.212136679281 0.132444975178
   RANGE                   = 2009-05-01T02:37:39.182685 10381.941070732009 0.077876742772
   DOPPLER_INSTANTANEOUS   = 2009-05-01T02:37:39.182685 4.211827673876 0.132429056520
   RANGE                   = 2009-05-01T02:37:39.382688 10380.197564293718 0.077864095382
   DOPPLER_INSTANTANEOUS   = 2009-05-01T02:37:39.382688 4.211545004433 0.132413145753
   RANGE                   = 2009-05-01T02:37:39.582690 10378.455264733844 0.077851448809
   DOPPLER_INSTANTANEOUS   = 2009-05-01T02:37:39.582690 4.211316476900 0.132397242875
   RANGE                   = 2009-05-01T02:37:39.782693 10376.866844828632 0.077838803052
   DOPPLER_INSTANTANEOUS   = 2009-05-01T02:37:39.782693 4.211026422310 0.132381347883
   RANGE                   = 2009-05-01T02:37:39.982696 10375.270575868641 0.077826158114
   DOPPLER_INSTANTANEOUS   = 2009-05-01T02:37:39.982696 4.210760739518 0.132365460773
   RANGE                   = 2009-05-01T02:37:40.182699 10373.506327438225 0.077813513995
   DOPPLER_INSTANTANEOUS   = 2009-05-01T02:37:40.182699 4.210483196585 0.132349581544
   RANGE                   = 2009-05-01T02:37:40.382702 10372.049999161141 0.077800870695
   DOPPLER_INSTANTANEOUS   = 2009-05-01T02:37:40.382702 4.210236841182 0.132333710191
   RANGE                   = 2009-05-01T02:37:40.582704 10370.019217622908 0.077788228216
   DOPPLER_INSTANTANEOUS   = 2009-05-01T02:37:40.582704 4.209946759144 0.132317846712
   RANGE                   = 2009-05-01T02:37:40.782707 10368.591034566400 0.077775586559
   DOPPLER_INSTANTANEOUS   = 2009-05-01T02:37:40.782707 4.209675509673 0.132301991103
   RANGE                   = 2009-05-01T02:37:40.982710 10366.730128521282 0.077762945724
   DOPPLER_INSTANTANEOUS   = 2009-05-01T02:37:40.982710 4.209370722711 0.132286143363
   RANGE                   = 2009-05-01T02:37:41.182713 10365.063860254582 0.077750303170
   DOPPLER_INSTANTANEOUS   = 2009-05-01T02:37:41.182713 4.209130414437 0.132270300302
   RANGE                   = 2009-05-01T02:37:41.382716 10363.421197539421 0.077737663983
   DOPPLER_INSTANTANEOUS   = 2009-05-01T02:37:41.382716 4.208845461910 0.132254468291
   RANGE                   = 2009-05-01T02:37:41.582718 10361.799803316750 0.077725025621
   DOPPLER_INSTANTANEOUS   = 2009-05-01T02:37:41.582718 4.208579402929 0.132238644138
   RANGE                   = 2009-05-01T02:37:41.782721 10360.047066109852 0.077712388086
   DOPPLER_INSTANTANEOUS   = 2009-05-01T02:37:41.782721 4.208303729837 0.132222827842
   RANGE                   = 2009-05-01T02:37:41.982724 10358.445087166745 0.077699751377
   DOPPLER_INSTANTANEOUS   = 2009-05-01T02:37:41.982724 4.208035708737 0.132207019399
   RANGE                   = 2009-05-01T02:37:42.182727 10356.635692404623 0.077687115497
   DOPPLER_INSTANTANEOUS   = 2009-05-01T02:37:42.182727 4.207781549943 0.132191218806
   RANGE                   = 2009-05-01T02:37:42.382730 10355.009497772375 0.077674480445
   DOPPLER_INSTANTANEOUS   = 2009-05-01T02:37:42.382730 4.207472423569 0.132175426060
   RANGE                   = 2009-05-01T02:37:42.582732 10353.420350346343 0.077661846223
   DOPPLER_INSTANTANEOUS   = 2009-05-01T02:37:42.582732 4.207210683080 0.132159641158
   RANGE                   = 2009-05-01T02:37:42.782735 10351.645536350314 0.077649212832
   DOPPLER_INSTANTANEOUS   = 2009-05-01T02:37:42.782735 4.206959594936 0.132143864099
   RANGE                   = 2009-05-01T02:37:42.982738 10350.120262888910 0.077636580272
   DOPPLER_INSTANTANEOUS   = 2009-05-01T02:37:42.982738 4.206660907018 0.132128094877
   RANGE                   = 2009-05-01T02:37:43.182741 10348.330569774098 0.077623948545
   DOPPLER_INSTANTANEOUS   = 2009-05-01T02:37:43.182741 4.206368645478 0.132112333491
   RANGE                   = 2009-05-01T02:37:43.382744 10346.522994501047 0.077611317651
   DOPPLER_INSTANTANEOUS   = 2009-05-01T02:37:43.382744 4.206095570903 0.132096579938
   RANGE                   = 2009-05-01T02:37:43.582747 10344.866929368374 0.077598687592
   DOPPLER_INSTANTANEOUS   = 2009-05-01T02:37:43.582747 4.205842401705 0.132080834214
   RANGE                   = 2009-05-01T02:37:43.782749 10343.242091639650 0.077586058367
   DOPPLER_INSTANTANEOUS   = 2009-05-01T02:37:43.782749 4.205575885343 0.132065096317
   RANGE                   = 2009-05-01T02:37:43.982752 10341.551107417174 0.077573429979
   DOPPLER_INSTANTANEOUS   = 2009-05-01T02:37:43.982752 4.205303323712 0.132049366243
   RANGE                   = 2009-05-01T02:37:44.182755 10339.962762555815 0.077560802428
   DOPPLER_INSTANTANEOUS   = 2009-05-01T02:37:44.182755 4.205023491600 0.132033643991
   RANGE                   = 2009-05-01T02:37:44.382758 10338.175446156572 0.077548175714
   DOPPLER_INSTANTANEOUS   = 2009-05-01T02:37:44.382758 4.204734774517 0.132017929556
   RANGE                   = 2009-05-01T02:37:44.582761 10336.463606581534 0.077535549840
   DOPPLER_INSTANTANEOUS   = 2009-05-01T02:37:44.582761 4.212929960222 0.132002222937
   RANGE                   = 2009-05-01T02:37:44.782763 10334.765955354596 0.077522924805
   DOPPLER_INSTANTANEOUS   = 2009-05-01T02:37:44.782763 4.212628889169 0.131986524129
   RANGE                   = 2009-05-01T02:37:44.982766 10333.148563200159 0.077510300611
   DOPPLER_INSTANTANEOUS   = 2009-05-01T02:37:44.982766 4.212391564226 0.131970833131
   RANGE                   = 2009-05-01T02:37:45.182769 10331.495506970159 0.077497677259
   DOPPLER_INSTANTANEOUS   = 2009-05-01T02:37:45.182769 4.212089142012 0.131955149939
   RANGE                   = 2009-05-01T02:37:45.382772 10329.804886201167 0.077485054749
   DOPPLER_INSTANTANEOUS   = 2009-05-01T02:37:45.382772 4.203372333850 0.131939474550
   RANGE                   = 2009-05-01T02:37:45.582775 10328.253842161941 0.077472433083
   DOPPLER_INSTANTANEOUS   = 2009-05-01T02:37:45.582775 4.203093244973 0.131923806962
   RANGE                   = 2009-05-01T02:37:45.782777 10326.380535610500 0.077459812260
   DOPPLER_INSTANTANEOUS   = 2009-05-01T02:37:45.782777 4.202826914463 0.131908147171
   RANGE                   = 2009-05-01T02:37:45.982780 10324.743490398123 0.077447192284
   DOPPLER_INSTANTANEOUS   = 2009-05-01T02:37:45.982780 4.202512658192 0.131892495174
   RANGE                   = 2009-05-01T02:37:46.182783 10323.124224464347 0.077434573153
   DOPPLER_INSTANTANEOUS   = 2009-05-01T02:37:46.182783 4.202228083147 0.131876850970
   RANGE                   = 2009-05-01T02:37:46.382786 10321.292364522486 0.077421954869
   DOPPLER_INSTANTANEOUS   = 2009-05-01T02:37:46.382786 4.201963162602 0.131861214554
   RANGE                   = 2009-05-01T02:37:46.582789 10319.676554858119 0.077409337434
   DOPPLER_INSTANTANEOUS   = 2009-05-01T02:37:46.582789 4.201682366471 0.131845585923
   RANGE                   = 2009-05-01T02:37:46.782791 10318.006207381926 0.077396720847
   DOPPLER_INSTANTANEOUS   = 2009-05-01T02:37:46.782791 4.201401444387 0.131829965076
   RANGE                   = 2009-05-01T02:37:46.982794 10316.234690520985 0.077384105110
   DOPPLER_INSTANTANEOUS   = 2009-05-01T02:37:46.982794 4.201114730063 0.131814352009
   RANGE                   = 2009-05-01T02:37:47.182797 10314.586400442924 0.077371490224
   DOPPLER_INSTANTANEOUS   = 2009-05-01T02:37:47.182797 4.200842297721 0.131798746718
   RANGE                   = 2009-05-01T02:37:47.382800 10313.102409454679 0.077358876190
   DOPPLER_INSTANTANEOUS   = 2009-05-01T02:37:47.382800 4.200535763806 0.131783149202
   RANGE                   = 2009-05-01T02:37:47.582803 10311.271234872635 0.077346263008
   DOPPLER_INSTANTANEOUS   = 2009-05-01T02:37:47.582803 4.200268223229 0.131767559457
   RANGE                   = 2009-05-01T02:37:47.782805 10309.545749782257 0.077333650680
   DOPPLER_INSTANTANEOUS   = 2009-05-01T02:37:47.782805 4.199988531071 0.131751977481
   RANGE                   = 2009-05-01T02:37:47.982808 10308.084670097818 0.077321039206
   DOPPLER_INSTANTANEOUS   = 2009-05-01T02:37:47.982808 4.199692647110 0.131736403270
   RANGE                   = 2009-05-01T02:37:48.182811 10306.275590935720 0.077308428587
   DOPPLER_INSTANTANEOUS   = 2009-05-01T02:37:48.182811 4.199404358636 0.131720836822
   RANGE                   = 2009-05-01T02:37:48.382814 10304.491013112491 0.077295818825
   DOPPLER_INSTANTANEOUS   = 2009-05-01T02:37:48.382814 4.199146103236 0.131705278133
   RANGE                   = 2009-05-01T02:37:48.582817 10302.873179544134 0.077283207384
   DOPPLER_INSTANTANEOUS   = 2009-05-01T02:37:48.582817 4.198854726678 0.131689724074
   RANGE                   = 2009-05-01T02:37:48.782820 10301.247848914203 0.077270599337
   DOPPLER_INSTANTANEOUS   = 2009-05-01T02:37:48.782820 4.198596394464 0.131674180897
   RANGE                   = 2009-05-01T02:37:48.982822 10299.576850292011 0.077257992150
   DOPPLER_INSTANTANEOUS   = 2009-05-01T02:37:48.982822 4.198289477872 0.131658645472
   RANGE                   = 2009-05-01T02:37:49.182825 10297.917581069127 0.077245385822
   DOPPLER_INSTANTANEOUS   = 2009-05-01T02:37:49.182825 4.198004769882 0.131643117795
   RANGE                   = 2009-05-01T02:37:49.382828 10296.078251261350 0.077232780356
   DOPPLER_INSTANTANEOUS   = 2009-05-01T02:37:49.382828 4.197707890196 0.131627597863
   RANGE                   = 2009-05-01T02:37:49.582831 10294.574472415214 0.077220175751
   DOPPLER_INSTANTANEOUS   = 2009-05-01T02:37:49.582831 4.197414740768 0.131612085673
   RANGE                   = 2009-05-01T02:37:49.782833 10292.865173780612 0.077207572009
   DOPPLER_INSTANTANEOUS   = 2009-05-01T02:37:49.782833 4.197164005366 0.131596581223
   RANGE                   = 2009-05-01T02:37:49.982836 10291.122975823149 0.077194969131
   DOPPLER_INSTANTANEOUS   = 2009-05-01T02:37:49.982836 4.196874450607 0.131581084509
   RANGE                   = 2009-05-01T02:37:50.182839 10289.371229482567 0.077182367118
   DOPPLER_INSTANTANEOUS   = 2009-05-01T02:37:50.182839 4.196587587235 0.131565595529
   RANGE                   = 2009-05-01T02:37:50.382842 10287.798817817007 0.077169765970
   DOPPLER_INSTANTANEOUS   = 2009-05-01T02:37:50.382842 4.196307159166 0.131550114280
   RANGE                   = 2009-05-01T02:37:50.582845 10286.087243172922 0.077157165688
   DOPPLER_INSTANTANEOUS   = 2009-05-01T02:37:50.582845 4.196016894048 0.131534640759
   RANGE                   = 2009-05-01T02:37:50.782847 10284.461844025356 0.077144566274
   DOPPLER_INSTANTANEOUS   = 2009-05-01T02:37:50.782847 4.195712757977 0.131519174963
   RANGE                   = 2009-05-01T02:37:50.982850 10282.744235658902 0.077131967729
   DOPPLER_INSTANTANEOUS   = 2009-05-01T02:37:50.982850 4.195442856299 0.131503716889
   RANGE                   = 2009-05-01T02:37:51.182853 10281.064320533180 0.077119370052
   DOPPLER_INSTANTANEOUS   = 2009-05-01T02:37:51.182853 4.195178170938 0.131488266534
   RANGE                   = 2009-05-01T02:37:51.382856 10279.234501540106 0.077106773246
   DOPPLER_INSTANTANEOUS   = 2009-05-01T02:37:51.382856 4.194840873688 0.131472823896
   RANGE                   = 2009-05-01T02:37:51.582859 10277.675892924079 0.077094177311
   DOPPLER_INSTANTANEOUS   = 2009-05-01T02:37:51.582859 4.194580130701 0.131457388972
   RANGE                   = 2009-05-01T02:37:51.782861 10276.037625400235 0.077081582248
   DOPPLER_INSTANTANEOUS   = 2009-05-01T02:37:51.782861 4.194247358799 0.131441961758
   RANGE                   = 2009-05-01T02:37:51.982864 10274.446991770363 0.077068988059
   DOPPLER_INSTANTANEOUS   = 2009-05-01T02:37:51.982864 4.202422136235 0.131426542252
   RANGE                   = 2009-05-01T02:37:52.182867 10272.729054756679 0.077056394743
   DOPPLER_INSTANTANEOUS   = 2009-05-01T02:37:52.182867 4.202136389419 0.131411130451
   RANGE                   = 2009-05-01T02:37:52.382870 10271.037973910497 0.077043802302
   DOPPLER_INSTANTANEOUS   = 2009-05-01T02:37:52.382870 4.201825310990 0.131395726352
   RANGE                   = 2009-05-01T02:37:52.582873 10269.065112971937 0.077031210737
   DOPPLER_INSTANTANEOUS   = 2009-05-01T02:37:52.582873 4.201561348000 0.131380329953
   RANGE                   = 2009-05-01T02:37:52.782876 10267.513740971055 0.077018620049
   DOPPLER_INSTANTANEOUS   = 2009-05-01T02:37:52.782876 4.192835867447 0.131364941249
   RANGE                   = 2009-05-01T02:37:52.982878 10265.985478928658 0.077006030238
   DOPPLER_INSTANTANEOUS   = 2009-05-01T02:37:52.982878 4.192514192103 0.131349560240
   RANGE                   = 2009-05-01T02:37:53.182881 10264.280193734228 0.076993441306
   DOPPLER_INSTANTANEOUS   = 2009-05-01T02:37:53.182881 4.192247007002 0.131334186921
   RANGE                   = 2009-05-01T02:37:53.382884 10262.607896875190 0.076980853254
   DOPPLER_INSTANTANEOUS   = 2009-05-01T02:37:53.382884 4.191959471568 0.131318821290
   RANGE                   = 2009-05-01T02:37:53.582887 10260.864829641545 0.076968266083
   DOPPLER_INSTANTANEOUS   = 2009-05-01T02:37:53.582887 4.191680967334 0.131303463344
   RANGE                   = 2009-05-01T02:37:53.782889 10259.327357756601 0.076955679792
   DOPPLER_INSTANTANEOUS   = 2009-05-01T02:37:53.782889 4.191407428608 0.131288113080
   RANGE                   = 2009-05-01T02:37:53.982892 10257.626633587706 0.076943094385
   DOPPLER_INSTANTANEOUS   = 2009-05-01T02:37:53.982892 4.191089059918 0.131272770495
   RANGE                   = 2009-05-01T02:37:54.182895 10255.864785241418 0.076930509860
   DOPPLER_INSTANTANEOUS   = 2009-05-01T02:37:54.182895 4.190785111723 0.131257435586
   RANGE                   = 2009-05-01T02:37:54.382898 10254.321331385985 0.076917926220
   DOPPLER_INSTANTANEOUS   = 2009-05-01T02:37:54.382898 4.190503717601 0.131242108352
   RANGE                   = 2009-05-01T02:37:54.582901 10252.526913031787 0.076905343465
   DOPPLER_INSTANTANEOUS   = 2009-05-01T02:37:54.582901 4.190206006521 0.131226788788
   RANGE                   = 2009-05-01T02:37:54.782903 10250.875295924290 0.076892761597
   DOPPLER_INSTANTANEOUS   = 2009-05-01T02:37:54.782903 4.189932018287 0.131211476892
   RANGE                   = 2009-05-01T02:37:54.982906 10249.085645679756 0.076880180615
   DOPPLER_INSTANTANEOUS   = 2009-05-01T02:37:54.982906 4.189640391003 0.131196172661
   RANGE                   = 2009-05-01T02:37:55.182909 10247.495614616357 0.076867600522
   DOPPLER_INSTANTANEOUS   = 2009-05-01T02:37:55.182909 4.189337370459 0.131180876092
   RANGE                   = 2009-05-01T02:37:55.382912 10245.974828904960 0.076855021318
   DOPPLER_INSTANTANEOUS   = 2009-05-01T02:37:55.382912 4.189050622901 0.131165587183
   RANGE                   = 2009-05-01T02:37:55.582915 10244.220858370449 0.076842443003
   DOPPLER_INSTANTANEOUS   = 2009-05-01T02:37:55.582915 4.188747278154 0.131150305930
   RANGE                   = 2009-05-01T02:37:55.782917 10242.494208308237 0.076829865580
   DOPPLER_INSTANTANEOUS   = 2009-05-01T02:37:55.782917 4.188458450943 0.131135032330
   RANGE                   = 2009-05-01T02:37:55.982920 10240.788216704281 0.076817286519
   DOPPLER_INSTANTANEOUS   = 2009-05-01T02:37:55.982920 4.188155903585 0.131119763312
   RANGE                   = 2009-05-01T02:37:56.182923 10238.923372119987 0.076804710880
   DOPPLER_INSTANTANEOUS   = 2009-05-01T02:37:56.182923 4.187858681967 0.131104505013
   RANGE                   = 2009-05-01T02:37:56.382926 10237.450306513905 0.076792136136
   DOPPLER_INSTANTANEOUS   = 2009-05-01T02:37:56.382926 4.187556854945 0.131089254360
   RANGE                   = 2009-05-01T02:37:56.582929 10235.636957150808 0.076779562286
   DOPPLER_INSTANTANEOUS   = 2009-05-01T02:37:56.582929 4.187275308096 0.131074011349
   RANGE                   = 2009-05-01T02:37:56.782931 10234.098134957841 0.076766989331
   DOPPLER_INSTANTANEOUS   = 2009-05-01T02:37:56.782931 4.186960444010 0.131058775977
   RANGE                   = 2009-05-01T02:37:56.982934 10232.423605479758 0.076754417274
   DOPPLER_INSTANTANEOUS   = 2009-05-01T02:37:56.982934 4.186654301689 0.131043548242
   RANGE                   = 2009-05-01T02:37:57.182937 10230.725261682548 0.076741846114
   DOPPLER_INSTANTANEOUS   = 2009-05-01T02:37:57.182937 4.186394524074 0.131028328141
   RANGE                   = 2009-05-01T02:37:57.382940 10228.994613146268 0.076729275852
   DOPPLER_INSTANTANEOUS   = 2009-05-01T02:37:57.382940 4.186081923378 0.131013115671
   RANGE                   = 2009-05-01T02:37:57.582942 10227.579196162391 0.076716706490
   DOPPLER_INSTANTANEOUS   = 2009-05-01T02:37:57.582942 4.185787750118 0.130997910830
   RANGE                   = 2009-05-01T02:37:57.782945 10225.711189786101 0.076704138029
   DOPPLER_INSTANTANEOUS   = 2009-05-01T02:37:57.782945 4.185493825106 0.130982713614
   RANGE                   = 2009-05-01T02:37:57.982948 10224.099401893351 0.076691570469
   DOPPLER_INSTANTANEOUS   = 2009-05-01T02:37:57.982948 4.185197033695 0.130967524020
   RANGE                   = 2009-05-01T02:37:58.182951 10222.452974011467 0.076679003811
   DOPPLER_INSTANTANEOUS   = 2009-05-01T02:37:58.182951 4.184906408173 0.130952342047
   RANGE                   = 2009-05-01T02:37:58.382954 10220.576842880249 0.076666438056
   DOPPLER_INSTANTANEOUS   = 2009-05-01T02:37:58.382954 4.184599791535 0.130937167690
   RANGE                   = 2009-05-01T02:37:58.582957 10219.017518498038 0.076653873206
   DOPPLER_INSTANTANEOUS   = 2009-05-01T02:37:58.582957 4.184296501299 0.130922000947
   RANGE                   = 2009-05-01T02:37:58.782959 10217.281081037032 0.076641309261
   DOPPLER_INSTANTANEOUS   = 2009-05-01T02:37:58.782959 4.183996024224 0.130906841816
   RANGE                   = 2009-05-01T02:37:58.982962 10215.626258530121 0.076628746222
   DOPPLER_INSTANTANEOUS   = 2009-05-01T02:37:58.982962 4.183682263714 0.130891690294
   RANGE                   = 2009-05-01T02:37:59.182965 10213.990776153330 0.076616184091
   DOPPLER_INSTANTANEOUS   = 2009-05-01T02:37:59.182965 4.183413962349 0.130876546377
   RANGE                   = 2009-05-01T02:37:59.382968 10212.179352562296 0.076603622867
   DOPPLER_INSTANTANEOUS   = 2009-05-01T02:37:59.382968 4.191519714254 0.130861410063
   RANGE                   = 2009-05-01T02:37:59.582970 10210.711520574358 0.076591062553
   DOPPLER_INSTANTANEOUS   = 2009-05-01T02:37:59.582970 4.191210684205 0.130846281349
   RANGE                   = 2009-05-01T02:37:59.782973 10208.899106153802 0.076578503148
   DOPPLER_INSTANTANEOUS   = 2009-05-01T02:37:59.782973 4.190929656513 0.130831160233
   RANGE                   = 2009-05-01T02:37:59.982976 10207.230334992817 0.076565944655
   DOPPLER_INSTANTANEOUS   = 2009-05-01T02:37:59.982976 4.190618400493 0.130816046711
   RANGE                   = 2009-05-01T02:38:00.182979 10205.777991157829 0.076553387073
   DOPPLER_INSTANTANEOUS   = 2009-05-01T02:38:00.182979 4.181898678239 0.130800940781
   RANGE                   = 2009-05-01T02:38:00.382982 10204.016671413270 0.076540830405
   DOPPLER_INSTANTANEOUS   = 2009-05-01T02:38:00.382982 4.181565147244 0.130785842440
   RANGE                   = 2009-05-01T02:38:00.582984 10202.265566667693 0.076528274650
   DOPPLER_INSTANTANEOUS   = 2009-05-01T02:38:00.582984 4.181276445991 0.130770751685
   RANGE                   = 2009-05-01T02:38:00.782987 10200.468234245889 0.076515719810
   DOPPLER_INSTANTANEOUS   = 2009-05-01T02:38:00.782987 4.180963145193 0.130755668514
   RANGE                   = 2009-05-01T02:38:00.982990 10198.792167039126 0.076503165886
   DOPPLER_INSTANTANEOUS   = 2009-05-01T02:38:00.982990 4.180676831926 0.130740592923
   RANGE                   = 2009-05-01T02:38:01.182993 10197.261084868222 0.076490612878
   DOPPLER_INSTANTANEOUS   = 2009-05-01T02:38:01.182993 4.180371145289 0.130725524909
   RANGE                   = 2009-05-01T02:38:01.382996 10195.638845311214 0.076478060789
   DOPPLER_INSTANTANEOUS   = 2009-05-01T02:38:01.382996 4.180055263451 0.130710464471
   RANGE                   = 2009-05-01T02:38:01.582998 10193.998038699901 0.076465509618
   DOPPLER_INSTANTANEOUS   = 2009-05-01T02:38:01.582998 4.179773394100 0.130695411605
   RANGE                   = 2009-05-01T02:38:01.783001 10192.255075611956 0.076452959367
   DOPPLER_INSTANTANEOUS   = 2009-05-01T02:38:01.783001 4.179468885848 0.130680366308
   RANGE                   = 2009-05-01T02:38:01.983004 10190.610046663935 0.076440410036
   DOPPLER_INSTANTANEOUS   = 2009-05-01T02:38:01.983004 4.179157418244 0.130665328578
   RANGE                   = 2009-05-01T02:38:02.183007 10188.845636056929 0.076427861627
   DOPPLER_INSTANTANEOUS   = 2009-05-01T02:38:02.183007 4.178840319086 0.130650298412
   RANGE                   = 2009-05-01T02:38:02.383009 10187.339405118397 0.076415314140
   DOPPLER_INSTANTANEOUS   = 2009-05-01T02:38:02.383009 4.178558150439 0.130635275807
   RANGE                   = 2009-05-01T02:38:02.583012 10185.707909665143 0.076402767578
   DOPPLER_INSTANTANEOUS   = 2009-05-01T02:38:02.583012 4.178233825283 0.130620260760
   RANGE                   = 2009-05-01T02:38:02.783015 10183.948370257212 0.076390221939
   DOPPLER_INSTANTANEOUS   = 2009-05-01T02:38:02.783015 4.177942689972 0.130605253269
   RANGE                   = 2009-05-01T02:38:02.983018 10182.284041213916 0.076377677226
   DOPPLER_INSTANTANEOUS   = 2009-05-01T02:38:02.983018 4.177628074608 0.130590253330
   RANGE                   = 2009-05-01T02:38:03.183021 10180.456663687359 0.076365133440
   DOPPLER_INSTANTANEOUS   = 2009-05-01T02:38:03.183021 4.177358273659 0.130575260941
   RANGE                   = 2009-05-01T02:38:03.383024 10178.885098431261 0.076352588057
   DOPPLER_INSTANTANEOUS   = 2009-05-01T02:38:03.383024 4.177018996430 0.130560273086
   RANGE                   = 2009-05-01T02:38:03.583026 10177.232846756442 0.076340046127
   DOPPLER_INSTANTANEOUS   = 2009-05-01T02:38:03.583026 4.176713495917 0.130545295790
   RANGE                   = 2009-05-01T02:38:03.783029 10175.706843091772 0.076327505126
   DOPPLER_INSTANTANEOUS   = 2009-05-01T02:38:03.783029 4.176404619616 0.130530326036
   RANGE                   = 2009-05-01T02:47:15.788725 6760.231129716747 0.050704251752
   DOPPLER_INSTANTANEOUS   = 2009-05-01T02:47:15.788725 1.107277856097 0.111591673764
   RANGE                   = 2009-05-01T02:47:15.988726 6759.798983857985 0.050700939477
   DOPPLER_INSTANTANEOUS   = 2009-05-01T02:47:15.988726 1.105081746819 0.111591952977
   RANGE                   = 2009-05-01T02:47:16.188727 6759.352520496174 0.050697633788
   DOPPLER_INSTANTANEOUS   = 2009-05-01T02:47:16.188727 1.102890260796 0.111592238140
   RANGE                   = 2009-05-01T02:47:16.388727 6758.902390585847 0.050694334688
   DOPPLER_INSTANTANEOUS   = 2009-05-01T02:47:16.388727 1.098478754090 0.111592529259
   RANGE                   = 2009-05-01T02:47:16.588728 6758.473133720155 0.050691042178
   DOPPLER_INSTANTANEOUS   = 2009-05-01T02:47:16.588728 1.096276319416 0.111592826337
   RANGE                   = 2009-05-01T02:47:16.788729 6758.053620453045 0.050687756261
   DOPPLER_INSTANTANEOUS   = 2009-05-01T02:47:16.788729 1.094067196513 0.111593129377
   RANGE                   = 2009-05-01T02:47:16.988729 6757.582897340432 0.050684476939
   DOPPLER_INSTANTANEOUS   = 2009-05-01T02:47:16.988729 1.091885610627 0.111593438384
   RANGE                   = 2009-05-01T02:47:17.188730 6757.268699570164 0.050681204213
   DOPPLER_INSTANTANEOUS   = 2009-05-01T02:47:17.188730 1.089679106678 0.111593753361
   RANGE                   = 2009-05-01T02:47:17.388731 6756.741452678299 0.050677938086
   DOPPLER_INSTANTANEOUS   = 2009-05-01T02:47:17.388731 1.087477338686 0.111594074312
   RANGE                   = 2009-05-01T02:47:17.588732 6756.241847194031 0.050674678561
   DOPPLER_INSTANTANEOUS   = 2009-05-01T02:47:17.588732 1.085290791635 0.111594401241
   RANGE                   = 2009-05-01T02:47:17.788733 6755.865571117781 0.050671425638
   DOPPLER_INSTANTANEOUS   = 2009-05-01T02:47:17.788733 1.083089726632 0.111594734151
   RANGE                   = 2009-05-01T02:47:17.988733 6755.422768914238 0.050668179320
   DOPPLER_INSTANTANEOUS   = 2009-05-01T02:47:17.988733 1.080898431708 0.111595073047
   RANGE                   = 2009-05-01T02:47:18.188734 6754.962787378051 0.050664939610
   DOPPLER_INSTANTANEOUS   = 2009-05-01T02:47:18.188734 1.078678459957 0.111595417933
   RANGE                   = 2009-05-01T02:47:18.388735 6754.640228438285 0.050661706510
   DOPPLER_INSTANTANEOUS   = 2009-05-01T02:47:18.388735 1.076480779387 0.111595768811
   RANGE                   = 2009-05-01T02:47:18.588735 6754.097872993429 0.050658480020
   DOPPLER_INSTANTANEOUS   = 2009-05-01T02:47:18.588735 1.074280581257 0.111596125686
   RANGE                   = 2009-05-01T02:47:18.788736 6753.645818507873 0.050655260145
   DOPPLER_INSTANTANEOUS   = 2009-05-01T02:47:18.788736 1.072075898444 0.111596488563
   RANGE                   = 2009-05-01T02:47:18.988737 6753.314517153524 0.050652046885
   DOPPLER_INSTANTANEOUS   = 2009-05-01T02:47:18.988737 1.069875595808 0.111596857444
   RANGE                   = 2009-05-01T02:47:19.188737 6752.784569026638 0.050648840242
   DOPPLER_INSTANTANEOUS   = 2009-05-01T02:47:19.188737 1.067662803025 0.111597232333
   RANGE                   = 2009-05-01T02:47:19.388738 6752.428091275949 0.050645640220
   DOPPLER_INSTANTANEOUS   = 2009-05-01T02:47:19.388738 1.065459290683 0.111597613235
   RANGE                   = 2009-05-01T02:47:19.588739 6752.016909391005 0.050642446819
   DOPPLER_INSTANTANEOUS   = 2009-05-01T02:47:19.588739 1.063243157197 0.111598000154
   RANGE                   = 2009-05-01T02:47:19.788740 6751.655164863003 0.050639259402
   DOPPLER_INSTANTANEOUS   = 2009-05-01T02:47:19.788740 1.061039353394 0.111598393172
   RANGE                   = 2009-05-01T02:47:19.988740 6751.127468566603 0.050636079253
   DOPPLER_INSTANTANEOUS   = 2009-05-01T02:47:19.988740 1.058839036171 0.111598792136
   RANGE                   = 2009-05-01T02:47:20.188741 6750.790834340146 0.050632905732
   DOPPLER_INSTANTANEOUS   = 2009-05-01T02:47:20.188741 1.056625214067 0.111599197128
   RANGE                   = 2009-05-01T02:47:20.388742 6750.273585838604 0.050629738841
   DOPPLER_INSTANTANEOUS   = 2009-05-01T02:47:20.388742 1.054417009579 0.111599608153
   RANGE                   = 2009-05-01T02:47:20.588742 6750.045050008379 0.050626578583
   DOPPLER_INSTANTANEOUS   = 2009-05-01T02:47:20.588742 1.052210571002 0.111600025213
   RANGE                   = 2009-05-01T02:47:20.788743 6749.502776826428 0.050623424958
   DOPPLER_INSTANTANEOUS   = 2009-05-01T02:47:20.788743 1.049995538904 0.111600448313
   RANGE                   = 2009-05-01T02:47:20.988744 6749.089411550561 0.050620277971
   DOPPLER_INSTANTANEOUS   = 2009-05-01T02:47:20.988744 1.047784493927 0.111600877457
   RANGE                   = 2009-05-01T02:47:21.188745 6748.609431507610 0.050617137621
   DOPPLER_INSTANTANEOUS   = 2009-05-01T02:47:21.188745 1.045567818839 0.111601312648
   RANGE                   = 2009-05-01T02:47:21.388745 6748.278972093673 0.050614003912
   DOPPLER_INSTANTANEOUS   = 2009-05-01T02:47:21.388745 1.043359399626 0.111601753892
   RANGE                   = 2009-05-01T02:47:21.588746 6747.778845668441 0.050610876846
   DOPPLER_INSTANTANEOUS   = 2009-05-01T02:47:21.588746 1.041159903595 0.111602201191
   RANGE                   = 2009-05-01T02:47:21.788747 6747.335602384828 0.050607756424
   DOPPLER_INSTANTANEOUS   = 2009-05-01T02:47:21.788747 1.038926598495 0.111602654550
   RANGE                   = 2009-05-01T02:47:21.988747 6747.032949863615 0.050604642649
   DOPPLER_INSTANTANEOUS   = 2009-05-01T02:47:21.988747 1.036715546497 0.111603113972
   RANGE                   = 2009-05-01T02:47:22.188748 6746.510939636916 0.050601535523
   DOPPLER_INSTANTANEOUS   = 2009-05-01T02:47:22.188748 1.034503469319 0.111603579463
   RANGE                   = 2009-05-01T02:47:22.388749 6746.091636955704 0.050598435048
   DOPPLER_INSTANTANEOUS   = 2009-05-01T02:47:22.388749 1.032286276538 0.111604051025
   RANGE                   = 2009-05-01T02:47:22.588749 6745.735412330722 0.050595341225
   DOPPLER_INSTANTANEOUS   = 2009-05-01T02:47:22.588749 1.030080600308 0.111604528662
   RANGE                   = 2009-05-01T02:47:22.788750 6745.312963507056 0.050592254057
   DOPPLER_INSTANTANEOUS   = 2009-05-01T02:47:22.788750 1.027859238512 0.111605012380
   RANGE                   = 2009-05-01T02:47:22.988751 6744.877289172407 0.050589173547
   DOPPLER_INSTANTANEOUS   = 2009-05-01T02:47:22.988751 1.025637736977 0.111605502181
   RANGE                   = 2009-05-01T02:47:23.188751 6744.553751662269 0.050586099695
   DOPPLER_INSTANTANEOUS   = 2009-05-01T02:47:23.188751 1.025475785931 0.111605998070
   RANGE                   = 2009-05-01T02:47:23.388752 6744.009656465309 0.050583032504
   DOPPLER_INSTANTANEOUS   = 2009-05-01T02:47:23.388752 1.023246922001 0.111606500051
   RANGE                   = 2009-05-01T02:47:23.588753 6743.743611903651 0.050579971976
   DOPPLER_INSTANTANEOUS   = 2009-05-01T02:47:23.588753 1.021029438228 0.111607008128
   RANGE                   = 2009-05-01T02:47:23.788754 6743.302543447324 0.050576918114
   DOPPLER_INSTANTANEOUS   = 2009-05-01T02:47:23.788754 1.016763782940 0.111607522305
   RANGE                   = 2009-05-01T02:47:23.988754 6742.943859472954 0.050573870918
   DOPPLER_INSTANTANEOUS   = 2009-05-01T02:47:23.988754 1.014541063764 0.111608042586
   RANGE                   = 2009-05-01T02:47:24.188755 6742.435391879961 0.050570830392
   DOPPLER_INSTANTANEOUS   = 2009-05-01T02:47:24.188755 1.012315970379 0.111608568975
   RANGE                   = 2009-05-01T02:47:24.388756 6742.061505081284 0.050567796536
   DOPPLER_INSTANTANEOUS   = 2009-05-01T02:47:24.388756 1.010091235745 0.111609101476
   RANGE                   = 2009-05-01T02:47:24.588756 6741.695564561395 0.050564769354
   DOPPLER_INSTANTANEOUS   = 2009-05-01T02:47:24.588756 1.007866262543 0.111609640094
   RANGE                   = 2009-05-01T02:47:24.788757 6741.278265212695 0.050561748847
   DOPPLER_INSTANTANEOUS   = 2009-05-01T02:47:24.788757 1.005651592400 0.111610184833
   RANGE                   = 2009-05-01T02:47:24.988757 6740.957957343013 0.050558735018
   DOPPLER_INSTANTANEOUS   = 2009-05-01T02:47:24.988757 1.003422955260 0.111610735695
   RANGE                   = 2009-05-01T02:47:25.188758 6740.476309126076 0.050555727867
   DOPPLER_INSTANTANEOUS   = 2009-05-01T02:47:25.188758 1.001192075984 0.111611292687
   RANGE                   = 2009-05-01T02:47:25.388759 6740.074711433373 0.050552727398
   DOPPLER_INSTANTANEOUS   = 2009-05-01T02:47:25.388759 0.998974863580 0.111611855811
   RANGE                   = 2009-05-01T02:47:25.588759 6739.669101195715 0.050549733612
   DOPPLER_INSTANTANEOUS   = 2009-05-01T02:47:25.588759 0.996741936489 0.111612425073
   RANGE                   = 2009-05-01T02:47:25.788760 6739.237265400589 0.050546746512
   DOPPLER_INSTANTANEOUS   = 2009-05-01T02:47:25.788760 0.994515742926 0.111613000475
   RANGE                   = 2009-05-01T02:47:25.988761 6738.899515514039 0.050543766099
   DOPPLER_INSTANTANEOUS   = 2009-05-01T02:47:25.988761 0.992278175614 0.111613582023
   RANGE                   = 2009-05-01T02:47:26.188761 6738.478547538451 0.050540792375
   DOPPLER_INSTANTANEOUS   = 2009-05-01T02:47:26.188761 0.990061486186 0.111614169721
   RANGE                   = 2009-05-01T02:47:26.388762 6738.039366581635 0.050537825342
   DOPPLER_INSTANTANEOUS   = 2009-05-01T02:47:26.388762 0.987826905562 0.111614763572
   RANGE                   = 2009-05-01T02:47:26.588763 6737.640860219228 0.050534865003
   DOPPLER_INSTANTANEOUS   = 2009-05-01T02:47:26.588763 0.985594323433 0.111615363580
   RANGE                   = 2009-05-01T02:47:26.788764 6737.338945365046 0.050531911359
   DOPPLER_INSTANTANEOUS   = 2009-05-01T02:47:26.788764 0.983370491089 0.111615969751
   RANGE                   = 2009-05-01T02:47:26.988764 6736.956271184989 0.050528964412
   DOPPLER_INSTANTANEOUS   = 2009-05-01T02:47:26.988764 0.981129654969 0.111616582089
   RANGE                   = 2009-05-01T02:47:27.188765 6736.448176974206 0.050526023574
   DOPPLER_INSTANTANEOUS   = 2009-05-01T02:47:27.188765 0.978899737900 0.111617200721
   RANGE                   = 2009-05-01T02:47:27.388765 6736.170787056080 0.050523090029
   DOPPLER_INSTANTANEOUS   = 2009-05-01T02:47:27.388765 0.976677284103 0.111617825405
   RANGE                   = 2009-05-01T02:47:27.588766 6735.720399488178 0.050520163188
   DOPPLER_INSTANTANEOUS   = 2009-05-01T02:47:27.588766 0.974436834251 0.111618456267
   RANGE                   = 2009-05-01T02:47:27.788767 6735.252913446878 0.050517243052
   DOPPLER_INSTANTANEOUS   = 2009-05-01T02:47:27.788767 0.972202509756 0.111619093313
   RANGE                   = 2009-05-01T02:47:27.988767 6734.928559967218 0.050514329623
   DOPPLER_INSTANTANEOUS   = 2009-05-01T02:47:27.988767 0.969960676198 0.111619736546
   RANGE                   = 2009-05-01T02:47:28.188768 6734.519318077219 0.050511422904
   DOPPLER_INSTANTANEOUS   = 2009-05-01T02:47:28.188768 0.967733555262 0.111620385971
   RANGE                   = 2009-05-01T02:47:28.388769 6734.124171538769 0.050508522895
   DOPPLER_INSTANTANEOUS   = 2009-05-01T02:47:28.388769 0.965499949072 0.111621041592
   RANGE                   = 2009-05-01T02:47:28.588769 6733.681124629611 0.050505629600
   DOPPLER_INSTANTANEOUS   = 2009-05-01T02:47:28.588769 0.963255538969 0.111621703413
   RANGE                   = 2009-05-01T02:47:28.788770 6733.389660502077 0.050502743020
   DOPPLER_INSTANTANEOUS   = 2009-05-01T02:47:28.788770 0.961021000996 0.111622371438
   RANGE                   = 2009-05-01T02:47:28.988770 6732.943448119052 0.050499863157
   DOPPLER_INSTANTANEOUS   = 2009-05-01T02:47:28.988770 0.958771742433 0.111623045672
   RANGE                   = 2009-05-01T02:47:29.188771 6732.621643937509 0.050496990014
   DOPPLER_INSTANTANEOUS   = 2009-05-01T02:47:29.188771 0.956541882592 0.111623726120
   RANGE                   = 2009-05-01T02:47:29.388772 6732.200382102485 0.050494123591
   DOPPLER_INSTANTANEOUS   = 2009-05-01T02:47:29.388772 0.954294531597 0.111624412784
   RANGE                   = 2009-05-01T02:47:29.588773 6731.970004946418 0.050491263892
   DOPPLER_INSTANTANEOUS   = 2009-05-01T02:47:29.588773 0.952061303992 0.111625105671
   RANGE                   = 2009-05-01T02:47:29.788773 6731.483169849575 0.050488410918
   DOPPLER_INSTANTANEOUS   = 2009-05-01T02:47:29.788773 0.949824500820 0.111625804784
   RANGE                   = 2009-05-01T02:47:29.988774 6731.167590333095 0.050485564670
   DOPPLER_INSTANTANEOUS   = 2009-05-01T02:47:29.988774 0.947569551740 0.111626510127
   RANGE                   = 2009-05-01T02:47:30.188774 6730.743967430250 0.050482725152
   DOPPLER_INSTANTANEOUS   = 2009-05-01T02:47:30.188774 0.945343262516 0.111627221704
   RANGE                   = 2009-05-01T02:47:30.388775 6730.276320054370 0.050479892365
   DOPPLER_INSTANTANEOUS   = 2009-05-01T02:47:30.388775 0.943097223275 0.111627939521
   RANGE                   = 2009-05-01T02:47:30.588776 6729.959515599857 0.050477066310
   DOPPLER_INSTANTANEOUS   = 2009-05-01T02:47:30.588776 0.942751395609 0.111628663582
   RANGE                   = 2009-05-01T02:47:30.788776 6729.541510126466 0.050474246990
   DOPPLER_INSTANTANEOUS   = 2009-05-01T02:47:30.788776 0.940496950913 0.111629393890
   RANGE                   = 2009-05-01T02:47:30.988777 6729.179970624205 0.050471434408
   DOPPLER_INSTANTANEOUS   = 2009-05-01T02:47:30.988777 0.938251263278 0.111630130450
   RANGE                   = 2009-05-01T02:47:31.188777 6728.807653518496 0.050468628563
   DOPPLER_INSTANTANEOUS   = 2009-05-01T02:47:31.188777 0.935997334761 0.111630873267
   RANGE                   = 2009-05-01T02:47:31.388778 6728.482282049606 0.050465829460
   DOPPLER_INSTANTANEOUS   = 2009-05-01T02:47:31.388778 0.931862224519 0.111631622346
   RANGE                   = 2009-05-01T02:47:31.588779 6728.163093111762 0.050463037099
   DOPPLER_INSTANTANEOUS   = 2009-05-01T02:47:31.588779 0.929626993826 0.111632377689
   RANGE                   = 2009-05-01T02:47:31.788779 6727.718904943151 0.050460251483
   DOPPLER_INSTANTANEOUS   = 2009-05-01T02:47:31.788779 0.927370273158 0.111633139303
   RANGE                   = 2009-05-01T02:47:31.988780 6727.363221554144 0.050457472613
   DOPPLER_INSTANTANEOUS   = 2009-05-01T02:47:31.988780 0.925128696400 0.111633907191
   RANGE                   = 2009-05-01T02:47:32.188781 6726.971162573697 0.050454700492
   DOPPLER_INSTANTANEOUS   = 2009-05-01T02:47:32.188781 0.922873692245 0.111634681357
   RANGE                   = 2009-05-01T02:47:32.388781 6726.614335739694 0.050451935121
   DOPPLER_INSTANTANEOUS   = 2009-05-01T02:47:32.388781 0.920639965349 0.111635461807
   RANGE                   = 2009-05-01T02:47:32.588782 6726.279022052818 0.050449176503
   DOPPLER_INSTANTANEOUS   = 2009-05-01T02:47:32.588782 0.918386877592 0.111636248544
   RANGE                   = 2009-05-01T02:47:32.788782 6725.844356419099 0.050446424639
   DOPPLER_INSTANTANEOUS   = 2009-05-01T02:47:32.788782 0.916130602588 0.111637041574
   RANGE                   = 2009-05-01T02:47:32.988783 6725.471833157753 0.050443679531
   DOPPLER_INSTANTANEOUS   = 2009-05-01T02:47:32.988783 0.913879091605 0.111637840900
   RANGE                   = 2009-05-01T02:47:33.188784 6725.113016602769 0.050440941181
   DOPPLER_INSTANTANEOUS   = 2009-05-01T02:47:33.188784 0.911624947452 0.111638646527
   RANGE                   = 2009-05-01T02:47:33.388784 6724.730866033477 0.050438209591
   DOPPLER_INSTANTANEOUS   = 2009-05-01T02:47:33.388784 0.909373408184 0.111639458460
   RANGE                   = 2009-05-01T02:47:33.588785 6724.341206795992 0.050435484763
   DOPPLER_INSTANTANEOUS   = 2009-05-01T02:47:33.588785 0.907134176634 0.111640276703
   RANGE                   = 2009-05-01T02:47:33.788785 6724.098999584478 0.050432766699
   DOPPLER_INSTANTANEOUS   = 2009-05-01T02:47:33.788785 0.904866208003 0.111641101261
   RANGE                   = 2009-05-01T02:47:33.988786 6723.669485169912 0.050430055401
   DOPPLER_INSTANTANEOUS   = 2009-05-01T02:47:33.988786 0.902622183400 0.111641932137
   RANGE                   = 2009-05-01T02:47:34.188787 6723.344612372659 0.050427350870
   DOPPLER_INSTANTANEOUS   = 2009-05-01T02:47:34.188787 0.900358895181 0.111642769338
   RANGE                   = 2009-05-01T02:47:34.388787 6722.958252341280 0.050424653109
   DOPPLER_INSTANTANEOUS   = 2009-05-01T02:47:34.388787 0.898104322730 0.111643612866
   RANGE                   = 2009-05-01T02:47:34.588788 6722.615754373584 0.050421961579
   DOPPLER_INSTANTANEOUS   = 2009-05-01T02:47:34.588788 0.895848707809 0.111644462899
   RANGE                   = 2009-05-01T02:47:34.788789 6722.299757521986 0.050419277365
   DOPPLER_INSTANTANEOUS   = 2009-05-01T02:47:34.788789 0.893594560650 0.111645319099
   RANGE                   = 2009-05-01T02:47:34.988789 6721.856254328731 0.050416599925
   DOPPLER_INSTANTANEOUS   = 2009-05-01T02:47:34.988789 0.891336105451 0.111646181641
   RANGE                   = 2009-05-01T02:47:35.188790 6721.597765026726 0.050413929263
   DOPPLER_INSTANTANEOUS   = 2009-05-01T02:47:35.188790 0.889080662393 0.111647050529
   RANGE                   = 2009-05-01T02:47:35.388790 6721.077117405838 0.050411265381
   DOPPLER_INSTANTANEOUS   = 2009-05-01T02:47:35.388790 0.886825174579 0.111647925768
   RANGE                   = 2009-05-01T02:47:35.588791 6720.834585466434 0.050408608279
   DOPPLER_INSTANTANEOUS   = 2009-05-01T02:47:35.588791 0.884561572233 0.111648807363
   RANGE                   = 2009-05-01T02:47:35.788791 6720.458916854656 0.050405957960
   DOPPLER_INSTANTANEOUS   = 2009-05-01T02:47:35.788791 0.882291120803 0.111649695319
   RANGE                   = 2009-05-01T02:47:35.988792 6720.178593680041 0.050403314426
   DOPPLER_INSTANTANEOUS   = 2009-05-01T02:47:35.988792 0.880035143493 0.111650589639
   RANGE                   = 2009-05-01T02:47:36.188793 6719.772972864772 0.050400677679
   DOPPLER_INSTANTANEOUS   = 2009-05-01T02:47:36.188793 0.877771981018 0.111651490328
   RANGE                   = 2009-05-01T02:47:36.388793 6719.372380648553 0.050398047720
   DOPPLER_INSTANTANEOUS   = 2009-05-01T02:47:36.388793 0.875516764612 0.111652397392
   RANGE                   = 2009-05-01T02:47:36.588794 6719.064155548159 0.050395424552
   DOPPLER_INSTANTANEOUS   = 2009-05-01T02:47:36.588794 0.873254571590 0.111653310835
   RANGE                   = 2009-05-01T02:47:36.788794 6718.688456478752 0.050392808176
   DOPPLER_INSTANTANEOUS   = 2009-05-01T02:47:36.788794 0.870983978435 0.111654230661
   RANGE                   = 2009-05-01T02:47:36.988795 6718.296605437069 0.050390198595
   DOPPLER_INSTANTANEOUS   = 2009-05-01T02:47:36.988795 0.868727644617 0.111655156875
   RANGE                   = 2009-05-01T02:47:37.188796 6718.029344591505 0.050387595809
   DOPPLER_INSTANTANEOUS   = 2009-05-01T02:47:37.188796 0.866456214617 0.111656089482
   RANGE                   = 2009-05-01T02:47:37.388796 6717.686610884291 0.050384999822
   DOPPLER_INSTANTANEOUS   = 2009-05-01T02:47:37.388796 0.864197101176 0.111657028486
   RANGE                   = 2009-05-01T02:47:37.588797 6717.269733897993 0.050382410635
   DOPPLER_INSTANTANEOUS   = 2009-05-01T02:47:37.588797 0.861935514858 0.111657973893
   RANGE                   = 2009-05-01T02:47:37.788797 6716.985840471781 0.050379828249
   DOPPLER_INSTANTANEOUS   = 2009-05-01T02:47:37.788797 0.859663787146 0.111658925706
   RANGE                   = 2009-05-01T02:47:37.988798 6716.665058997849 0.050377252667
   DOPPLER_INSTANTANEOUS   = 2009-05-01T02:47:37.988798 0.859121731809 0.111659883931
   RANGE                   = 2009-05-01T02:47:38.188798 6716.279714839440 0.050374683890
   DOPPLER_INSTANTANEOUS   = 2009-05-01T02:47:38.188798 0.856850697404 0.111660848573
   RANGE                   = 2009-05-01T02:47:38.388799 6716.003166127908 0.050372121921
   DOPPLER_INSTANTANEOUS   = 2009-05-01T02:47:38.388799 0.854576246937 0.111661819635
   RANGE                   = 2009-05-01T02:47:38.588799 6715.572192746370 0.050369566761
   DOPPLER_INSTANTANEOUS   = 2009-05-01T02:47:38.588799 0.852304079784 0.111662797124
   RANGE                   = 2009-05-01T02:47:38.788800 6715.248943784878 0.050367018412
   DOPPLER_INSTANTANEOUS   = 2009-05-01T02:47:38.788800 0.848324476912 0.111663781042
   RANGE                   = 2009-05-01T02:47:38.988801 6714.964788843012 0.050364476876
   DOPPLER_INSTANTANEOUS   = 2009-05-01T02:47:38.988801 0.846054316848 0.111664771396
   RANGE                   = 2009-05-01T02:47:39.188801 6714.643656837582 0.050361942155
