tests/data/tracklet.tdm

CCSDS_TDM_VERS = 1.0
   COMMENT MASTER ID 1001120300074.0
   COMMENT TX_ECEF (2116582.848329356872,783500.738468278782,5945469.151553326286)
   COMMENT RX_ECEF (2116582.848329356872,783500.738468278782,5945469.151553326286)
   COMMENT This is a simulated track of MASTER ID 1001120300074.0 with EISCAT 3D
   COMMENT 233 MHz, time of flight, with ionospheric corrections
   COMMENT EISCAT 3D coordinates: 
   COMMENT Author(s): SORTS.
   CREATION_DATE       = 2019-04-11T20:29:23
META_START
   TIME_SYSTEM         = UTC
   START_TIME          = 2009-05-01T02:37:20.582423
   STOP_TIME           = 2009-05-01T02:49:50.388830
   PARTICIPANT_1       = Skibotn TX
   PARTICIPANT_2       = 1001120300074.0
   PARTICIPANT_3       = Skibotn
   MODE                = SEQUENTIAL
   PATH                = 1,2,3
   TRANSMIT_BAND       = 233000000.00000
   RECEIVE_BAND        = 233000000.00000
   TIMETAG_REF         = TRANSMIT
   INTEGRATION_REF     = START
   RANGE_MODE          = CONSTANT
   RANGE_MODULUS       = 2.56
   RANGE_UNITS         = KM
   DATA_QUALITY        = VALIDATED
   CORRECTION_RANGE    = 0.0
   NOISE_DATA          = ON
   CORRECTIONS_APPLIED = NO
META_STOP
DATA_START
   RANGE                   = 2009-05-01T02:37:20.582423 10539.162206964465 0.079056400612
   DOPPLER_INSTANTANEOUS   = 2009-05-01T02:37:20.582423 4.235569719850 0.133943662449
   RANGE                   = 2009-05-01T02:37:20.782425 10537.399467575642 0.079043681153
   DOPPLER_INSTANTANEOUS   = 2009-05-01T02:37:20.782425 4.235353551608 0.133927004821
   RANGE                   = 2009-05-01T02:37:20.982428 10535.773661467867 0.079030962430
   DOPPLER_INSTANTANEOUS   = 2009-05-01T02:37:20.982428 4.235077345552 0.133910355365
   RANGE                   = 2009-05-01T02:37:21.182431 10533.988077401345 0.079018244443
   DOPPLER_INSTANTANEOUS   = 2009-05-01T02:37:21.182431 4.234858086695 0.133893714078
   RANGE                   = 2009-05-01T02:37:21.382434 10532.327512632826 0.079005527193
   DOPPLER_INSTANTANEOUS   = 2009-05-01T02:37:21.382434 4.234597837785 0.133877080957
   RANGE                   = 2009-05-01T02:37:21.582437 10530.632095542835 0.078992810681
   DOPPLER_INSTANTANEOUS   = 2009-05-01T02:37:21.582437 4.234347852390 0.133860455999
   RANGE                   = 2009-05-01T02:37:21.782439 10529.061283443883 0.078980094908
   DOPPLER_INSTANTANEOUS   = 2009-05-01T02:37:21.782439 4.234112572604 0.133843839201
   RANGE                   = 2009-05-01T02:37:21.982442 10527.211719718647 0.078967379874
   DOPPLER_INSTANTANEOUS   = 2009-05-01T02:37:21.982442 4.233865670713 0.133827230559
   RANGE                   = 2009-05-01T02:37:22.182445 10525.505855419806 0.078954665581
   DOPPLER_INSTANTANEOUS   = 2009-05-01T02:37:22.182445 4.233662803844 0.133810630071
   RANGE                   = 2009-05-01T02:37:22.382448 10523.853958577629 0.078941952029
   DOPPLER_INSTANTANEOUS   = 2009-05-01T02:37:22.382448 4.241891837287 0.133794037733
   RANGE                   = 2009-05-01T02:37:22.582451 10522.278817794813 0.078929239219
   DOPPLER_INSTANTANEOUS   = 2009-05-01T02:37:22.582451 4.241667934591 0.133777453542
   RANGE                   = 2009-05-01T02:37:22.782454 10520.563583455087 0.078916527152
   DOPPLER_INSTANTANEOUS   = 2009-05-01T02:37:22.782454 4.241440390141 0.133760877496
   RANGE                   = 2009-05-01T02:37:22.982456 10518.804130298271 0.078903815829
   DOPPLER_INSTANTANEOUS   = 2009-05-01T02:37:22.982456 4.232681550252 0.133744309591
   RANGE                   = 2009-05-01T02:37:23.182459 10517.092250901249 0.078891105250
   DOPPLER_INSTANTANEOUS   = 2009-05-01T02:37:23.182459 4.232402496587 0.133727749823
   RANGE                   = 2009-05-01T02:37:23.382462 10515.386608607474 0.078878395417
   DOPPLER_INSTANTANEOUS   = 2009-05-01T02:37:23.382462 4.232154429748 0.133711198191
   RANGE                   = 2009-05-01T02:37:23.582465 10513.676478054806 0.078865686331
   DOPPLER_INSTANTANEOUS   = 2009-05-01T02:37:23.582465 4.231940353520 0.133694654690
   RANGE                   = 2009-05-01T02:37:23.782468 10512.024513907767 0.078852977991
   DOPPLER_INSTANTANEOUS   = 2009-05-01T02:37:23.782468 4.231684168107 0.133678119318
   RANGE                   = 2009-05-01T02:37:23.982471 10510.454012670682 0.078840270400
   DOPPLER_INSTANTANEOUS   = 2009-05-01T02:37:23.982471 4.231444486786 0.133661592071
   RANGE                   = 2009-05-01T02:37:24.182473 10508.661081960563 0.078827563558
   DOPPLER_INSTANTANEOUS   = 2009-05-01T02:37:24.182473 4.231206566622 0.133645072947
   RANGE                   = 2009-05-01T02:37:24.382476 10506.945078416309 0.078814857465
   DOPPLER_INSTANTANEOUS   = 2009-05-01T02:37:24.382476 4.230931184889 0.133628561942
   RANGE                   = 2009-05-01T02:37:24.582479 10505.189452060416 0.078802152123
   DOPPLER_INSTANTANEOUS   = 2009-05-01T02:37:24.582479 4.230694429785 0.133612059053
   RANGE                   = 2009-05-01T02:37:24.782482 10503.652185557114 0.078789447532
   DOPPLER_INSTANTANEOUS   = 2009-05-01T02:37:24.782482 4.230437551353 0.133595564277
   RANGE                   = 2009-05-01T02:37:24.982485 10501.945248280221 0.078776743694
   DOPPLER_INSTANTANEOUS   = 2009-05-01T02:37:24.982485 4.230212791975 0.133579077611
   RANGE                   = 2009-05-01T02:37:25.182487 10500.237662184070 0.078764040609
   DOPPLER_INSTANTANEOUS   = 2009-05-01T02:37:25.182487 4.229938228127 0.133562599052
   RANGE                   = 2009-05-01T02:37:25.382490 10498.477365838398 0.078751338277
   DOPPLER_INSTANTANEOUS   = 2009-05-01T02:37:25.382490 4.229728717438 0.133546128597
   RANGE                   = 2009-05-01T02:37:25.582493 10496.709452475281 0.078738636701
   DOPPLER_INSTANTANEOUS   = 2009-05-01T02:37:25.582493 4.229445804723 0.133529666243
   RANGE                   = 2009-05-01T02:37:25.782496 10495.002396565847 0.078725935881
   DOPPLER_INSTANTANEOUS   = 2009-05-01T02:37:25.782496 4.229208268171 0.133513211986
   RANGE                   = 2009-05-01T02:37:25.982499 10493.409777845389 0.078713235817
   DOPPLER_INSTANTANEOUS   = 2009-05-01T02:37:25.982499 4.228938179949 0.133496765824
   RANGE                   = 2009-05-01T02:37:26.182502 10491.876124568580 0.078700536510
   DOPPLER_INSTANTANEOUS   = 2009-05-01T02:37:26.182502 4.228684235173 0.133480327753
   RANGE                   = 2009-05-01T02:37:26.382504 10490.206120590316 0.078687835408
   DOPPLER_INSTANTANEOUS   = 2009-05-01T02:37:26.382504 4.228436640876 0.133463894466
   RANGE                   = 2009-05-01T02:37:26.582507 10488.372514999764 0.078675137619
   DOPPLER_INSTANTANEOUS   = 2009-05-01T02:37:26.582507 4.228199626278 0.133447472571
   RANGE                   = 2009-05-01T02:37:26.782510 10486.566004278415 0.078662440590
   DOPPLER_INSTANTANEOUS   = 2009-05-01T02:37:26.782510 4.227927041963 0.133431058757
   RANGE                   = 2009-05-01T02:37:26.982513 10484.939599013724 0.078649744322
   DOPPLER_INSTANTANEOUS   = 2009-05-01T02:37:26.982513 4.227697939227 0.133414653023
   RANGE                   = 2009-05-01T02:37:27.182516 10483.238945340654 0.078637048816
   DOPPLER_INSTANTANEOUS   = 2009-05-01T02:37:27.182516 4.227409602360 0.133398255365
   RANGE                   = 2009-05-01T02:37:27.382519 10481.516079539557 0.078624354072
   DOPPLER_INSTANTANEOUS   = 2009-05-01T02:37:27.382519 4.227211393036 0.133381865780
   RANGE                   = 2009-05-01T02:37:27.582521 10479.824251436647 0.078611660092
   DOPPLER_INSTANTANEOUS   = 2009-05-01T02:37:27.582521 4.226929131225 0.133365484265
   RANGE                   = 2009-05-01T02:37:27.782524 10478.193915159789 0.078598966876
   DOPPLER_INSTANTANEOUS   = 2009-05-01T02:37:27.782524 4.226686951385 0.133349110816
   RANGE                   = 2009-05-01T02:37:27.982527 10476.664293677444 0.078586274426
   DOPPLER_INSTANTANEOUS   = 2009-05-01T02:37:27.982527 4.226424400782 0.133332745432
DATA_STOP
